town_code,town,lat,long,district,district_lat,district_long,region,regional_city,region_lat,region_long,population_density,area,population,distance_town_district,drive_town_district,distance_town_region,drive_town_region
542652,Bánovce nad Bebravou,48.72413765,18.26397423,Bánovce nad Bebravou,48.72413765,18.26397423,Trenčiansky kraj,Trenčín,48.8923583,18.0393715,662.33,"26,548,133",17584,0,0,29.6,34
556793,Borčany,48.6563788,18.2193755,Bánovce nad Bebravou,48.72413765,18.26397423,Trenčiansky kraj,Trenčín,48.8923583,18.0393715,84.08,"3,109,996",262,10.9,16,38.9,45
542741,Brezolupy,48.7011174,18.3014814,Bánovce nad Bebravou,48.72413765,18.26397423,Trenčiansky kraj,Trenčín,48.8923583,18.0393715,81.88,"6,338,200",519,6.8,9,35.4,35
556408,Chudá Lehota,48.6467562,18.198307,Bánovce nad Bebravou,48.72413765,18.26397423,Trenčiansky kraj,Trenčín,48.8923583,18.0393715,60.67,"3,667,112",223,12.8,19,40.8,48
542806,Čierna Lehota - Bánovce nad Bebravou,48.8675544,18.3338423,Bánovce nad Bebravou,48.72413765,18.26397423,Trenčiansky kraj,Trenčín,48.8923583,18.0393715,7.43,"15,208,948",113,25.6,35,37.1,46
542776,Cimenná,48.7266632,18.1405663,Bánovce nad Bebravou,48.72413765,18.26397423,Trenčiansky kraj,Trenčín,48.8923583,18.0393715,27.93,"3,597,753",101,13.2,20,27.4,34
542822,Dežerice,48.761706,18.2133311,Bánovce nad Bebravou,48.72413765,18.26397423,Trenčiansky kraj,Trenčín,48.8923583,18.0393715,78.67,"13,036,065",1026,6.9,10,24.4,26
542849,Dolné Naštice,48.6929658,18.2498537,Bánovce nad Bebravou,48.72413765,18.26397423,Trenčiansky kraj,Trenčín,48.8923583,18.0393715,124.44,"4,636,731",577,4,7,32,36
542857,Dubnička,48.7646405,18.3000791,Bánovce nad Bebravou,48.72413765,18.26397423,Trenčiansky kraj,Trenčín,48.8923583,18.0393715,15.54,"8,109,268",126,10.3,15,33.5,37
542873,Dvorec,48.7083092,18.2187149,Bánovce nad Bebravou,48.72413765,18.26397423,Trenčiansky kraj,Trenčín,48.8923583,18.0393715,170.06,"2,660,852",453,5.2,9,30.6,36
542890,Haláčovce,48.7019715,18.1949829,Bánovce nad Bebravou,48.72413765,18.26397423,Trenčiansky kraj,Trenčín,48.8923583,18.0393715,78.15,"4,683,474",366,7.5,12,34.6,40
542920,Horné Naštice,48.735247,18.2977433,Bánovce nad Bebravou,48.72413765,18.26397423,Trenčiansky kraj,Trenčín,48.8923583,18.0393715,58.49,"8,565,401",501,4.4,8,34,39
543080,Krásna Ves,48.8349793,18.2327034,Bánovce nad Bebravou,48.72413765,18.26397423,Trenčiansky kraj,Trenčín,48.8923583,18.0393715,49.43,"10,216,105",505,15,19,27.5,32
543136,Kšinná,48.8080283,18.3517768,Bánovce nad Bebravou,48.72413765,18.26397423,Trenčiansky kraj,Trenčín,48.8923583,18.0393715,11.88,"41,241,545",490,15.3,24,54.1,56
556360,Libichava,48.6701582,18.1733678,Bánovce nad Bebravou,48.72413765,18.26397423,Trenčiansky kraj,Trenčín,48.8923583,18.0393715,53.54,"2,624,153",141,15.3,23,36.3,47
505056,Ľutov,48.7767852,18.2807377,Bánovce nad Bebravou,48.72413765,18.26397423,Trenčiansky kraj,Trenčín,48.8923583,18.0393715,20,"8,577,011",172,9.5,14,32.6,35
505072,Malá Hradná,48.7590012,18.163626,Bánovce nad Bebravou,48.72413765,18.26397423,Trenčiansky kraj,Trenčín,48.8923583,18.0393715,50.01,"7,908,744",396,10.8,15,23.8,27
505102,Malé Hoste,48.7028703,18.1351352,Bánovce nad Bebravou,48.72413765,18.26397423,Trenčiansky kraj,Trenčín,48.8923583,18.0393715,58.11,"6,814,254",396,13.4,21,31.6,40
505153,Miezgovce,48.7205663,18.2964705,Bánovce nad Bebravou,48.72413765,18.26397423,Trenčiansky kraj,Trenčín,48.8923583,18.0393715,32.34,"8,750,456",283,3.4,6,33.1,38
505200,Nedašovce,48.6679246,18.3149737,Bánovce nad Bebravou,48.72413765,18.26397423,Trenčiansky kraj,Trenčín,48.8923583,18.0393715,64.07,"6,913,993",443,9.7,13,39.1,40
505277,Omastiná,48.7769282,18.3886834,Bánovce nad Bebravou,48.72413765,18.26397423,Trenčiansky kraj,Trenčín,48.8923583,18.0393715,3.33,"12,447,725",42,14.6,23,53.4,55
556289,Otrhánky,48.6938138,18.2069992,Bánovce nad Bebravou,48.72413765,18.26397423,Trenčiansky kraj,Trenčín,48.8923583,18.0393715,84.73,"4,656,097",395,6.4,11,33.5,39
505331,Pečeňany,48.6748284,18.227577,Bánovce nad Bebravou,48.72413765,18.26397423,Trenčiansky kraj,Trenčín,48.8923583,18.0393715,78.63,"6,625,775",521,6.9,11,34.9,40
556742,Pochabany,48.69144,18.145388,Bánovce nad Bebravou,48.72413765,18.26397423,Trenčiansky kraj,Trenčín,48.8923583,18.0393715,60.14,"4,314,831",260,12.5,20,33.1,43
505358,Podlužany - Bánovce nad Bebravou,48.7709521,18.2389013,Bánovce nad Bebravou,48.72413765,18.26397423,Trenčiansky kraj,Trenčín,48.8923583,18.0393715,63.4,"14,021,072",889,7.4,11,26.8,30
505382,Pravotice,48.6823621,18.2919204,Bánovce nad Bebravou,48.72413765,18.26397423,Trenčiansky kraj,Trenčín,48.8923583,18.0393715,55.97,"6,048,126",339,6.9,9,36.3,35
505412,Prusy,48.7453952,18.27053597,Bánovce nad Bebravou,48.72413765,18.26397423,Trenčiansky kraj,Trenčín,48.8923583,18.0393715,82.45,"7,519,917",620,8.1,12,31.2,34
505447,Ruskovce - Bánovce nad Bebravou,48.7438906,18.1903229,Bánovce nad Bebravou,48.72413765,18.26397423,Trenčiansky kraj,Trenčín,48.8923583,18.0393715,155.13,"3,358,389",521,8.2,12,25.1,27
505455,Rybany,48.6667133,18.2602284,Bánovce nad Bebravou,48.72413765,18.26397423,Trenčiansky kraj,Trenčín,48.8923583,18.0393715,133.36,"11,041,509",1473,7.1,10,35.1,39
505544,Šípkov,48.8511387,18.2930533,Bánovce nad Bebravou,48.72413765,18.26397423,Trenčiansky kraj,Trenčín,48.8923583,18.0393715,12.55,"11,556,305",145,21.7,29,33.2,40
505552,Šišov,48.6569743,18.1795334,Bánovce nad Bebravou,48.72413765,18.26397423,Trenčiansky kraj,Trenčín,48.8923583,18.0393715,52.8,"9,631,243",509,14.3,21,42.3,51
505471,Slatina nad Bebravou,48.8368577,18.2638167,Bánovce nad Bebravou,48.72413765,18.26397423,Trenčiansky kraj,Trenčín,48.8923583,18.0393715,38.39,"11,527,494",443,18.6,25,30.1,35
505480,Slatinka nad Bebravou,48.844245,18.2416841,Bánovce nad Bebravou,48.72413765,18.26397423,Trenčiansky kraj,Trenčín,48.8923583,18.0393715,20.08,"9,537,110",192,16.9,23,28.4,33
505579,Timoradza,48.8110952,18.2362612,Bánovce nad Bebravou,48.72413765,18.26397423,Trenčiansky kraj,Trenčín,48.8923583,18.0393715,49.1,"10,489,379",515,12.2,16,30.3,35
505595,Trebichava,48.8219355,18.3013058,Bánovce nad Bebravou,48.72413765,18.26397423,Trenčiansky kraj,Trenčín,48.8923583,18.0393715,3.48,"11,765,172",41,22.4,31,33.9,41
505625,Uhrovec,48.7434585,18.3375919,Bánovce nad Bebravou,48.72413765,18.26397423,Trenčiansky kraj,Trenčín,48.8923583,18.0393715,65.41,"22,948,443",1501,7.6,13,46.5,44
505633,Uhrovské Podhradie,48.7633213,18.3798618,Bánovce nad Bebravou,48.72413765,18.26397423,Trenčiansky kraj,Trenčín,48.8923583,18.0393715,2.8,"12,522,114",35,13.7,22,52.6,53
505692,Veľké Chlievany,48.7037841,18.2245087,Bánovce nad Bebravou,48.72413765,18.26397423,Trenčiansky kraj,Trenčín,48.8923583,18.0393715,97.84,"5,146,123",504,4.7,8,31.4,36
545651,Veľké Držkovce,48.7350507,18.1738234,Bánovce nad Bebravou,48.72413765,18.26397423,Trenčiansky kraj,Trenčín,48.8923583,18.0393715,51.57,"12,789,521",660,10.2,15,27.1,30
505684,Veľké Hoste,48.6800415,18.1573767,Bánovce nad Bebravou,48.72413765,18.26397423,Trenčiansky kraj,Trenčín,48.8923583,18.0393715,68.57,"8,254,531",566,13.7,22,34.3,44
505765,Vysočany,48.6795607,18.318783,Bánovce nad Bebravou,48.72413765,18.26397423,Trenčiansky kraj,Trenčín,48.8923583,18.0393715,25.34,"4,320,831",110,10,13,39.4,40
505811,Žitná - Radiša,48.7667926,18.3464788,Bánovce nad Bebravou,48.72413765,18.26397423,Trenčiansky kraj,Trenčín,48.8923583,18.0393715,24.99,"17,769,435",444,10.7,17,49.6,49
505790,Zlatníky,48.7111473,18.1225418,Bánovce nad Bebravou,48.72413765,18.26397423,Trenčiansky kraj,Trenčín,48.8923583,18.0393715,13.6,"50,439,750",686,14.7,23,30,38
508454,Badín,48.6650207,19.1269549,Banská Bystrica,48.73709685,19.14672413,Banskobystrický kraj,Banská Bystrica,48.7384028,19.1573494,59.22,"34,389,985",2037,11.3,15,10.4,13
508471,Baláže,48.8140003,19.1956082,Banská Bystrica,48.73709685,19.14672413,Banskobystrický kraj,Banská Bystrica,48.7384028,19.1573494,15.44,"14,216,159",220,15.2,24,14.2,22
508438,Banská Bystrica,48.73709685,19.14672413,Banská Bystrica,48.73709685,19.14672413,Banskobystrický kraj,Banská Bystrica,48.7384028,19.1573494,753.57,"103,376,386",77902,0,0,1.9,5
508675,Brusno,48.7950435,19.3798389,Banská Bystrica,48.73709685,19.14672413,Banskobystrický kraj,Banská Bystrica,48.7384028,19.1573494,50.04,"43,511,159",2178,20.1,21,19.3,20
508519,Čerín,48.6719545,19.24977399,Banská Bystrica,48.73709685,19.14672413,Banskobystrický kraj,Banská Bystrica,48.7384028,19.1573494,38.59,"11,531,992",445,16.9,24,16,22
508543,Dolná Mičiná,48.67144715,19.21330722,Banská Bystrica,48.73709685,19.14672413,Banskobystrický kraj,Banská Bystrica,48.7384028,19.1573494,46.23,"9,463,024",438,11.5,17,10.7,15
508551,Dolný Harmanec,48.8112242,19.0515462,Banská Bystrica,48.73709685,19.14672413,Banskobystrický kraj,Banská Bystrica,48.7384028,19.1573494,6.04,"44,292,695",268,13.7,17,14.8,20
508560,Donovaly,48.8790358,19.2239467,Banská Bystrica,48.73709685,19.14672413,Banskobystrický kraj,Banská Bystrica,48.7384028,19.1573494,14.71,"17,503,411",258,26.1,29,27.2,32
508586,Dúbravica,48.67767645,19.29156136,Banská Bystrica,48.73709685,19.14672413,Banskobystrický kraj,Banská Bystrica,48.7384028,19.1573494,49.55,"8,506,829",422,19.6,29,18.8,27
508594,Harmanec,48.7843674,19.06267721,Banská Bystrica,48.73709685,19.14672413,Banskobystrický kraj,Banská Bystrica,48.7384028,19.1573494,108.16,"7,757,261",839,11.6,15,12.7,17
508616,Hiadeľ,48.8082096,19.3156941,Banská Bystrica,48.73709685,19.14672413,Banskobystrický kraj,Banská Bystrica,48.7384028,19.1573494,31.53,"16,557,000",522,20.1,24,19.3,23
508632,Horná Mičiná,48.6987534,19.214015,Banská Bystrica,48.73709685,19.14672413,Banskobystrický kraj,Banská Bystrica,48.7384028,19.1573494,40.41,"15,691,088",634,8.2,13,7.3,11
508641,Horné Pršany,48.70008525,19.06989942,Banská Bystrica,48.73709685,19.14672413,Banskobystrický kraj,Banská Bystrica,48.7384028,19.1573494,112.72,"3,526,357",398,9.6,21,8.7,19
508659,Hrochoť,48.6552585,19.3121335,Banská Bystrica,48.73709685,19.14672413,Banskobystrický kraj,Banská Bystrica,48.7384028,19.1573494,42.24,"34,742,883",1468,20.4,29,19.5,27
580236,Hronsek,48.6548356,19.17414847,Banská Bystrica,48.73709685,19.14672413,Banskobystrický kraj,Banská Bystrica,48.7384028,19.1573494,90.63,"7,304,072",662,13.4,19,12.5,16
508713,Kordíky,48.77436665,19.02628352,Banská Bystrica,48.73709685,19.14672413,Banskobystrický kraj,Banská Bystrica,48.7384028,19.1573494,48.13,"9,972,745",480,12.9,20,13,21
508721,Králiky,48.7344918,19.03155997,Banská Bystrica,48.73709685,19.14672413,Banskobystrický kraj,Banská Bystrica,48.7384028,19.1573494,415.27,"1,649,516",685,12.1,20,12.2,22
557277,Kynceľová,48.7514815,19.18309828,Banská Bystrica,48.73709685,19.14672413,Banskobystrický kraj,Banská Bystrica,48.7384028,19.1573494,318.1,"1,167,859",372,4.9,8,3.9,7
508748,Ľubietová,48.7483155,19.3582564,Banská Bystrica,48.73709685,19.14672413,Banskobystrický kraj,Banská Bystrica,48.7384028,19.1573494,20.23,"61,037,321",1235,20.5,24,19.7,23
508756,Lučatín,48.781684,19.32134713,Banská Bystrica,48.73709685,19.14672413,Banskobystrický kraj,Banská Bystrica,48.7384028,19.1573494,61.34,"10,882,786",668,17.1,19,16.3,18
580244,Malachov,48.71218555,19.08458602,Banská Bystrica,48.73709685,19.14672413,Banskobystrický kraj,Banská Bystrica,48.7384028,19.1573494,177.21,"6,266,455",1111,7.8,17,7,15
508764,Medzibrod,48.7933995,19.3571083,Banská Bystrica,48.73709685,19.14672413,Banskobystrický kraj,Banská Bystrica,48.7384028,19.1573494,81.14,"17,076,006",1386,18.6,21,17.8,20
508781,Môlča,48.7102354,19.23399212,Banská Bystrica,48.73709685,19.14672413,Banskobystrický kraj,Banská Bystrica,48.7384028,19.1573494,40.35,"9,393,346",379,10.3,17,9.4,14
508799,Moštenica,48.8069479,19.2929165,Banská Bystrica,48.73709685,19.14672413,Banskobystrický kraj,Banská Bystrica,48.7384028,19.1573494,17.84,"13,422,157",240,18,24,17.2,23
508802,Motyčky,48.8603695,19.1705265,Banská Bystrica,48.73709685,19.14672413,Banskobystrický kraj,Banská Bystrica,48.7384028,19.1573494,8.18,"13,081,860",107,20.5,23,21.5,26
557285,Nemce,48.7763399,19.16654772,Banská Bystrica,48.73709685,19.14672413,Banskobystrický kraj,Banská Bystrica,48.7384028,19.1573494,284.22,"4,102,422",1166,6.3,11,7.6,13
508837,Oravce,48.6902458,19.26001497,Banská Bystrica,48.73709685,19.14672413,Banskobystrický kraj,Banská Bystrica,48.7384028,19.1573494,37.91,"4,722,185",179,18.6,27,17.7,24
508861,Podkonice,48.7990189,19.2552296,Banská Bystrica,48.73709685,19.14672413,Banskobystrický kraj,Banská Bystrica,48.7384028,19.1573494,32.15,"28,477,955",916,16.3,21,15.5,20
508896,Pohronský Bukovec,48.8356241,19.3775007,Banská Bystrica,48.73709685,19.14672413,Banskobystrický kraj,Banská Bystrica,48.7384028,19.1573494,8.12,"14,470,786",118,25.1,28,24.3,27
508918,Poniky,48.7112066,19.2922734,Banská Bystrica,48.73709685,19.14672413,Banskobystrický kraj,Banská Bystrica,48.7384028,19.1573494,26.49,"59,036,971",1564,14.5,22,13.7,21
508926,Povrazník,48.71213605,19.36705572,Banská Bystrica,48.73709685,19.14672413,Banskobystrický kraj,Banská Bystrica,48.7384028,19.1573494,42.45,"3,345,184",142,28.2,36,27.4,35
508942,Priechod,48.7925026,19.21934907,Banská Bystrica,48.73709685,19.14672413,Banskobystrický kraj,Banská Bystrica,48.7384028,19.1573494,87.46,"11,211,220",981,12.2,19,11.2,18
508969,Riečka - Banská Bystrica,48.752632,19.0838243,Banská Bystrica,48.73709685,19.14672413,Banskobystrický kraj,Banská Bystrica,48.7384028,19.1573494,121.95,"6,822,733",832,7.3,13,7.4,14
508977,Sebedín - Bečov,48.6369441,19.2399907,Banská Bystrica,48.73709685,19.14672413,Banskobystrický kraj,Banská Bystrica,48.7384028,19.1573494,37.55,"9,626,125",362,16.6,22,15.7,20
508985,Selce - Banská Bystrica,48.7654811,19.2028636,Banská Bystrica,48.73709685,19.14672413,Banskobystrický kraj,Banská Bystrica,48.7384028,19.1573494,106.58,"19,994,146",2131,7,12,6,10
509001,Slovenská Ľupča,48.7667001,19.2747386,Banská Bystrica,48.73709685,19.14672413,Banskobystrický kraj,Banská Bystrica,48.7384028,19.1573494,100.8,"32,325,200",3259,12,15,11.2,14
509035,Špania Dolina,48.8074695,19.134012,Banská Bystrica,48.73709685,19.14672413,Banskobystrický kraj,Banská Bystrica,48.7384028,19.1573494,17.01,"12,724,590",217,10.8,16,11.8,19
509019,Staré Hory,48.8375526,19.1157533,Banská Bystrica,48.73709685,19.14672413,Banskobystrický kraj,Banská Bystrica,48.7384028,19.1573494,13.32,"41,560,848",554,14.8,17,15.8,20
509027,Strelníky,48.7215525,19.3943965,Banská Bystrica,48.73709685,19.14672413,Banskobystrický kraj,Banská Bystrica,48.7384028,19.1573494,44.63,"17,467,404",780,25.9,32,25.1,31
509060,Tajov,48.7416136,19.05117921,Banská Bystrica,48.73709685,19.14672413,Banskobystrický kraj,Banská Bystrica,48.7384028,19.1573494,71.16,"9,289,497",661,9.6,17,9.6,18
557269,Turecká,48.858297,19.07926038,Banská Bystrica,48.73709685,19.14672413,Banskobystrický kraj,Banská Bystrica,48.7384028,19.1573494,14.81,"10,162,664",151,18.4,23,19.5,26
557293,Vlkanová,48.67546905,19.16681587,Banská Bystrica,48.73709685,19.14672413,Banskobystrický kraj,Banská Bystrica,48.7384028,19.1573494,169.51,"7,778,155",1319,11.6,16,10.7,14
516601,Baďan,48.3393687,18.84298288,Banská Štiavnica,48.44432915,18.92126973,Banskobystrický kraj,Banská Bystrica,48.7384028,19.1573494,11.36,"15,091,117",172,20.5,29,64.2,65
516627,Banská Belá,48.4732822,18.939332,Banská Štiavnica,48.44432915,18.92126973,Banskobystrický kraj,Banská Bystrica,48.7384028,19.1573494,56.13,"21,075,772",1183,8.1,11,41,33
516643,Banská Štiavnica,48.44432915,18.92126973,Banská Štiavnica,48.44432915,18.92126973,Banskobystrický kraj,Banská Bystrica,48.7384028,19.1573494,213.18,"46,735,648",9963,0,0,48.7,42
516651,Banský Studenec,48.4472104,18.9709794,Banská Štiavnica,48.44432915,18.92126973,Banskobystrický kraj,Banská Bystrica,48.7384028,19.1573494,24.54,"19,195,693",471,6.9,12,46.7,44
516678,Beluj,48.351258,18.8935161,Banská Štiavnica,48.44432915,18.92126973,Banskobystrický kraj,Banská Bystrica,48.7384028,19.1573494,5.96,"22,813,890",136,17.2,21,63.6,58
516716,Dekýš,48.3945781,18.8147682,Banská Štiavnica,48.44432915,18.92126973,Banskobystrický kraj,Banská Bystrica,48.7384028,19.1573494,10.86,"17,820,005",194,15.7,19,59.4,55
516856,Ilija,48.4196363,18.9006218,Banská Štiavnica,48.44432915,18.92126973,Banskobystrický kraj,Banská Bystrica,48.7384028,19.1573494,33.23,"10,637,105",354,5.6,9,52,46
516953,Kozelník,48.51767295,18.99669777,Banská Štiavnica,48.44432915,18.92126973,Banskobystrický kraj,Banská Bystrica,48.7384028,19.1573494,17.97,"9,014,379",162,16.1,18,32.6,24
517071,Močiar,48.5412993,18.9460427,Banská Štiavnica,48.44432915,18.92126973,Banskobystrický kraj,Banská Bystrica,48.7384028,19.1573494,7.67,"20,918,920",161,15.9,22,53.4,51
517160,Počúvadlo,48.3661998,18.834955,Banská Štiavnica,48.44432915,18.92126973,Banskobystrický kraj,Banská Bystrica,48.7384028,19.1573494,6.13,"15,507,958",95,17.6,25,61.3,61
517143,Podhorie - Banská Štiavnica,48.4983571,18.9198372,Banská Štiavnica,48.44432915,18.92126973,Banskobystrický kraj,Banská Bystrica,48.7384028,19.1573494,15.04,"21,639,164",326,8.7,12,46.2,41
517178,Prenčov,48.3629383,18.9229468,Banská Štiavnica,48.44432915,18.92126973,Banskobystrický kraj,Banská Bystrica,48.7384028,19.1573494,26.61,"24,501,727",652,12.5,14,58.9,51
517283,Štiavnické Bane,48.43435485,18.84739019,Banská Štiavnica,48.44432915,18.92126973,Banskobystrický kraj,Banská Bystrica,48.7384028,19.1573494,80.28,"10,158,419",816,9.5,13,53.1,49
516597,Svätý Anton,48.40975575,18.95040459,Banská Štiavnica,48.44432915,18.92126973,Banskobystrický kraj,Banská Bystrica,48.7384028,19.1573494,53.56,"22,628,422",1212,7.8,10,54.1,48
517372,Vysoká - Banská Štiavnica,48.4122091,18.7906013,Banská Štiavnica,48.44432915,18.92126973,Banskobystrický kraj,Banská Bystrica,48.7384028,19.1573494,9.75,"14,558,379",142,14.8,19,58.5,55
519014,Abrahámovce - Bardejov,49.1616223,21.3426096,Bardejov,49.2926871,21.2756031,Prešovský kraj,Prešov,48.9975724,21.2401811,57.89,"5,899,305",342,23,27,26.6,31
519022,Andrejová,49.3327013,21.3324994,Bardejov,49.2926871,21.2756031,Prešovský kraj,Prešov,48.9975724,21.2401811,31.68,"11,662,554",370,8.6,14,49.2,57
519006,Bardejov,49.2926871,21.2756031,Bardejov,49.2926871,21.2756031,Prešovský kraj,Prešov,48.9975724,21.2401811,445.09,"72,335,652",32196,0,0,41.6,46
519049,Bartošovce,49.2027728,21.2741555,Bardejov,49.2926871,21.2756031,Prešovský kraj,Prešov,48.9975724,21.2401811,65.08,"11,231,942",731,13.6,20,30.8,35
519057,Becherov,49.4199204,21.3117602,Bardejov,49.2926871,21.2756031,Prešovský kraj,Prešov,48.9975724,21.2401811,15.03,"19,093,099",287,17,21,57.5,64
519065,Beloveža,49.2957839,21.3687757,Bardejov,49.2926871,21.2756031,Prešovský kraj,Prešov,48.9975724,21.2401811,76.44,"10,151,601",776,9.6,15,50.2,58
519073,Bogliarka,49.2800924,21.1485099,Bardejov,49.2926871,21.2756031,Prešovský kraj,Prešov,48.9975724,21.2401811,10.97,"9,391,140",103,16.8,21,50.2,56
519081,Brezov,49.1426935,21.50301164,Bardejov,49.2926871,21.2756031,Prešovský kraj,Prešov,48.9975724,21.2401811,53.45,"6,894,329",369,29.2,45,30.5,37
519090,Brezovka,49.2713814,21.4199581,Bardejov,49.2926871,21.2756031,Prešovský kraj,Prešov,48.9975724,21.2401811,33.81,"3,267,923",111,14.4,22,55,66
519103,Buclovany,49.15991135,21.36349791,Bardejov,49.2926871,21.2756031,Prešovský kraj,Prešov,48.9975724,21.2401811,49.32,"4,095,871",202,24.5,29,28.1,33
519286,Chmeľová,49.4,21.3,Bardejov,49.2926871,21.2756031,Prešovský kraj,Prešov,48.9975724,21.2401811,30.05,"12,431,126",374,14.7,19,55.2,62
519111,Cigeľka,49.4055886,21.1480998,Bardejov,49.2926871,21.2756031,Prešovský kraj,Prešov,48.9975724,21.2401811,38.13,"15,984,432",610,20.2,28,61.4,70
519138,Dubinné,49.2477761,21.4340766,Bardejov,49.2926871,21.2756031,Prešovský kraj,Prešov,48.9975724,21.2401811,49.31,"7,077,233",349,15.7,24,47,61
519154,Frička,49.40675415,21.07273914,Bardejov,49.2926871,21.2756031,Prešovský kraj,Prešov,48.9975724,21.2401811,41.19,"8,278,554",341,21.7,31,62.9,73
519162,Fričkovce,49.1845866,21.2409372,Bardejov,49.2926871,21.2756031,Prešovský kraj,Prešov,48.9975724,21.2401811,78.39,"9,350,883",733,14.1,21,30.3,37
519171,Gaboltov,49.3704485,21.13877994,Bardejov,49.2926871,21.2756031,Prešovský kraj,Prešov,48.9975724,21.2401811,37.82,"12,732,420",482,15.6,21,56.8,63
519189,Gerlachov - Bardejov,49.3412479,21.10544258,Bardejov,49.2926871,21.2756031,Prešovský kraj,Prešov,48.9975724,21.2401811,120.61,"8,863,544",1069,14.4,17,55.6,60
519201,Hankovce - Bardejov,49.2039984,21.4054241,Bardejov,49.2926871,21.2756031,Prešovský kraj,Prešov,48.9975724,21.2401811,49.76,"8,892,562",443,20.3,31,39.1,50
519219,Harhaj,49.1838015,21.40768579,Bardejov,49.2926871,21.2756031,Prešovský kraj,Prešov,48.9975724,21.2401811,60.55,"4,434,483",269,20.2,31,34,42
519227,Hažlín,49.3028201,21.4211327,Bardejov,49.2926871,21.2756031,Prešovský kraj,Prešov,48.9975724,21.2401811,54.48,"20,098,719",1095,13.9,22,54.5,65
519235,Hertník,49.2086619,21.2378752,Bardejov,49.2926871,21.2756031,Prešovský kraj,Prešov,48.9975724,21.2401811,57.8,"17,974,985",1039,11.1,16,33.4,39
519243,Hervartov,49.247478,21.2074511,Bardejov,49.2926871,21.2756031,Prešovský kraj,Prešov,48.9975724,21.2401811,52.07,"9,872,007",514,8.9,13,40.3,45
519251,Hrabovec,49.2722061,21.3807607,Bardejov,49.2926871,21.2756031,Prešovský kraj,Prešov,48.9975724,21.2401811,65.25,"7,854,714",513,10.7,17,51.2,60
519260,Hrabské,49.34145145,21.07724293,Bardejov,49.2926871,21.2756031,Prešovský kraj,Prešov,48.9975724,21.2401811,55.34,"10,905,131",604,19.1,24,56.2,64
519278,Hutka,49.3986095,21.4289498,Bardejov,49.2926871,21.2756031,Prešovský kraj,Prešov,48.9975724,21.2401811,26.53,"3,694,367",98,20.4,24,61,67
519294,Janovce,49.18374205,21.30490696,Bardejov,49.2926871,21.2756031,Prešovský kraj,Prešov,48.9975724,21.2401811,83.04,"5,551,270",461,15,17,26.7,29
519308,Jedlinka,49.3986241,21.3708202,Bardejov,49.2926871,21.2756031,Prešovský kraj,Prešov,48.9975724,21.2401811,18.75,"4,559,809",86,16.8,21,57.4,64
519324,Kľušov,49.246556,21.2594916,Bardejov,49.2926871,21.2756031,Prešovský kraj,Prešov,48.9975724,21.2401811,72.74,"15,363,154",1118,6.6,9,35.2,38
519341,Kobyly,49.21994605,21.29775909,Bardejov,49.2926871,21.2756031,Prešovský kraj,Prešov,48.9975724,21.2401811,69.35,"12,458,379",864,11,14,31.4,35
519359,Kochanovce - Bardejov,49.1886516,21.37241587,Bardejov,49.2926871,21.2756031,Prešovský kraj,Prešov,48.9975724,21.2401811,47.59,"5,526,615",263,18.6,29,36.6,46
519367,Komárov,49.2811953,21.3498978,Bardejov,49.2926871,21.2756031,Prešovský kraj,Prešov,48.9975724,21.2401811,55.74,"7,992,382",446,8.4,13,49,57
519375,Koprivnica,49.1563934,21.3953283,Bardejov,49.2926871,21.2756031,Prešovský kraj,Prešov,48.9975724,21.2401811,46.87,"14,157,344",664,27.2,34,30.8,37
519383,Kožany,49.2166667,21.5,Bardejov,49.2926871,21.2756031,Prešovský kraj,Prešov,48.9975724,21.2401811,19.71,"5,201,303",103,23,35,43.7,51
519405,Krivé,49.29303905,21.1523062,Bardejov,49.2926871,21.2756031,Prešovský kraj,Prešov,48.9975724,21.2401811,40.18,"5,276,900",212,14.2,17,45.6,49
519413,Kríže,49.2430142,21.1494554,Bardejov,49.2926871,21.2756031,Prešovský kraj,Prešov,48.9975724,21.2401811,4.22,"14,936,254",63,21.9,29,55.3,63
519421,Kružlov,49.30201645,21.11986963,Bardejov,49.2926871,21.2756031,Prešovský kraj,Prešov,48.9975724,21.2401811,100.25,"10,055,364",1008,13.8,18,48.6,54
519430,Kučín - Bardejov,49.2088033,21.4546994,Bardejov,49.2926871,21.2756031,Prešovský kraj,Prešov,48.9975724,21.2401811,45.25,"7,193,928",326,20.8,32,42.1,54
519456,Kurima,49.226617,21.4524463,Bardejov,49.2926871,21.2756031,Prešovský kraj,Prešov,48.9975724,21.2401811,71.05,"15,890,534",1129,18.4,28,44.2,57
519464,Kurov,49.3483112,21.1265747,Bardejov,49.2926871,21.2756031,Prešovský kraj,Prešov,48.9975724,21.2401811,57.31,"11,848,233",679,14.4,17,55.6,60
519472,Lascov,49.1608455,21.4812864,Bardejov,49.2926871,21.2756031,Prešovský kraj,Prešov,48.9975724,21.2401811,107.82,"5,347,104",577,27,41,32.4,40
519481,Lenartov,49.3103365,21.0236233,Bardejov,49.2926871,21.2756031,Prešovský kraj,Prešov,48.9975724,21.2401811,79.31,"14,777,046",1172,21,26,60.6,63
519499,Lipová - Bardejov,49.2616548,21.4814297,Bardejov,49.2926871,21.2756031,Prešovský kraj,Prešov,48.9975724,21.2401811,19.26,"3,919,771",76,22.3,34,53.5,71
519502,Livov,49.2508036,21.0884714,Bardejov,49.2926871,21.2756031,Prešovský kraj,Prešov,48.9975724,21.2401811,2.6,"26,374,917",69,24.2,31,61.2,71
519511,Livovská Huta,49.2439631,21.0329684,Bardejov,49.2926871,21.2756031,Prešovský kraj,Prešov,48.9975724,21.2401811,3.02,"14,216,088",43,28.7,38,65.7,77
519529,Lopúchov,49.1306028,21.37052004,Bardejov,49.2926871,21.2756031,Prešovský kraj,Prešov,48.9975724,21.2401811,38.41,"8,135,029",313,23.9,29,27.5,33
519545,Lukavica - Bardejov,49.2614846,21.3264103,Bardejov,49.2926871,21.2756031,Prešovský kraj,Prešov,48.9975724,21.2401811,45.1,"8,292,369",374,6.8,10,44,49
519553,Lukov,49.2936231,21.0779009,Bardejov,49.2926871,21.2756031,Prešovský kraj,Prešov,48.9975724,21.2401811,22.67,"28,580,195",648,19,24,56,63
519570,Malcov,49.3040576,21.057481,Bardejov,49.2926871,21.2756031,Prešovský kraj,Prešov,48.9975724,21.2401811,86.27,"18,876,967",1629,18.1,22,55.2,61
519588,Marhaň,49.17598695,21.45866862,Bardejov,49.2926871,21.2756031,Prešovský kraj,Prešov,48.9975724,21.2401811,92.68,"10,395,988",964,24.8,38,35.6,44
519600,Mikulášová,49.383189,21.3912093,Bardejov,49.2926871,21.2756031,Prešovský kraj,Prešov,48.9975724,21.2401811,15.69,"7,996,956",126,17.8,22,58.4,65
519618,Mokroluh,49.3060167,21.21075609,Bardejov,49.2926871,21.2756031,Prešovský kraj,Prešov,48.9975724,21.2401811,97.02,"7,947,212",771,5.6,8,46.8,50
519626,Nemcovce - Bardejov,49.2095635,21.4412912,Bardejov,49.2926871,21.2756031,Prešovský kraj,Prešov,48.9975724,21.2401811,48.17,"5,459,464",263,21.6,33,41,52
519634,Nižná Polianka,49.404392,21.4021202,Bardejov,49.2926871,21.2756031,Prešovský kraj,Prešov,48.9975724,21.2401811,38.38,"5,875,983",226,18.3,22,58.9,65
519642,Nižná Voľa,49.2239025,21.3713519,Bardejov,49.2926871,21.2756031,Prešovský kraj,Prešov,48.9975724,21.2401811,39.24,"7,173,917",282,13.5,21,40.8,52
519669,Nižný Tvarožec,49.3618719,21.1844683,Bardejov,49.2926871,21.2756031,Prešovský kraj,Prešov,48.9975724,21.2401811,48.54,"11,156,769",542,15.3,20,56.5,63
519677,Oľšavce,49.2020495,21.38086584,Bardejov,49.2926871,21.2756031,Prešovský kraj,Prešov,48.9975724,21.2401811,33.86,"5,064,555",172,15.9,24,38.2,48
519685,Ondavka,49.436445,21.3387586,Bardejov,49.2926871,21.2756031,Prešovský kraj,Prešov,48.9975724,21.2401811,3.46,"3,468,150",12,24.3,31,64.9,74
519693,Ortuťová,49.2701507,21.456593,Bardejov,49.2926871,21.2756031,Prešovský kraj,Prešov,48.9975724,21.2401811,32.27,"6,027,440",195,18.6,29,49.9,66
519707,Osikov,49.1738425,21.2629222,Bardejov,49.2926871,21.2756031,Prešovský kraj,Prešov,48.9975724,21.2401811,70.64,"13,873,897",980,15.9,23,28,33
519715,Petrová,49.3856596,21.1259884,Bardejov,49.2926871,21.2756031,Prešovský kraj,Prešov,48.9975724,21.2401811,64.35,"14,297,094",920,17.6,24,58.8,66
519723,Poliakovce,49.2553598,21.4062902,Bardejov,49.2926871,21.2756031,Prešovský kraj,Prešov,48.9975724,21.2401811,50.65,"7,531,912",382,13.8,22,54.3,65
519731,Porúbka - Bardejov,49.1994503,21.4275572,Bardejov,49.2926871,21.2756031,Prešovský kraj,Prešov,48.9975724,21.2401811,75.55,"2,964,779",224,20.4,31,39.3,50
519936,Raslavice,49.1495809,21.3191619,Bardejov,49.2926871,21.2756031,Prešovský kraj,Prešov,48.9975724,21.2401811,170.7,"16,459,138",2810,19.2,22,22.8,25
519740,Regetovka,49.4214264,21.2723229,Bardejov,49.2926871,21.2756031,Prešovský kraj,Prešov,48.9975724,21.2401811,6.11,"7,122,930",44,17.6,23,58.2,66
519758,Rešov,49.2383174,21.3307713,Bardejov,49.2926871,21.2756031,Prešovský kraj,Prešov,48.9975724,21.2401811,32.52,"9,162,786",298,10.1,16,47.3,55
519766,Richvald,49.2761353,21.1902329,Bardejov,49.2926871,21.2756031,Prešovský kraj,Prešov,48.9975724,21.2401811,45.81,"21,841,736",1001,10.6,13,41.9,45
519774,Rokytov,49.3152712,21.19086846,Bardejov,49.2926871,21.2756031,Prešovský kraj,Prešov,48.9975724,21.2401811,111.17,"5,136,415",571,7,8,48.2,51
519847,Šarišské Čierne,49.3450406,21.382666,Bardejov,49.2926871,21.2756031,Prešovský kraj,Prešov,48.9975724,21.2401811,21.01,"14,016,092",295,14.6,23,55.2,66
519855,Šašová,49.25985115,21.45147405,Bardejov,49.2926871,21.2756031,Prešovský kraj,Prešov,48.9975724,21.2401811,30.11,"5,280,090",159,18.2,28,48.3,63
519863,Šiba,49.2333333,21.2333333,Bardejov,49.2926871,21.2756031,Prešovský kraj,Prešov,48.9975724,21.2401811,45.82,"13,824,807",634,8.4,12,39.8,44
519782,Smilno,49.3833333,21.35,Bardejov,49.2926871,21.2756031,Prešovský kraj,Prešov,48.9975724,21.2401811,50.34,"13,795,876",695,13.8,17,54.3,60
519791,Snakov,49.340215,21.04077847,Bardejov,49.2926871,21.2756031,Prešovský kraj,Prešov,48.9975724,21.2401811,56.18,"12,138,887",682,19.4,25,56.4,65
519804,Stebnícka Huta,49.4095518,21.2497497,Bardejov,49.2926871,21.2756031,Prešovský kraj,Prešov,48.9975724,21.2401811,23.59,"9,433,342",223,18.2,25,58.7,68
519812,Stebník,49.3790953,21.2669111,Bardejov,49.2926871,21.2756031,Prešovský kraj,Prešov,48.9975724,21.2401811,14.81,"20,533,357",304,13.9,19,54.5,62
519821,Stuľany,49.1411485,21.41070992,Bardejov,49.2926871,21.2756031,Prešovský kraj,Prešov,48.9975724,21.2401811,68.55,"8,118,013",557,26.6,33,28.7,34
519839,Sveržov,49.33871055,21.16573253,Bardejov,49.2926871,21.2756031,Prešovský kraj,Prešov,48.9975724,21.2401811,108.62,"5,703,424",620,11.8,16,53,58
519871,Tarnov,49.3213907,21.15784689,Bardejov,49.2926871,21.2756031,Prešovský kraj,Prešov,48.9975724,21.2401811,69.66,"5,835,613",407,9.7,12,50.9,54
519880,Tročany,49.1824105,21.3218371,Bardejov,49.2926871,21.2756031,Prešovský kraj,Prešov,48.9975724,21.2401811,34.9,"8,467,710",296,15.7,19,28.4,31
518964,Vaniškovce,49.16591705,21.29289143,Bardejov,49.2926871,21.2756031,Prešovský kraj,Prešov,48.9975724,21.2401811,76.73,"4,802,718",369,20.4,24,25.6,30
519901,Varadka,49.4190542,21.38419577,Bardejov,49.2926871,21.2756031,Prešovský kraj,Prešov,48.9975724,21.2401811,31.8,"7,374,140",235,20.2,25,60.8,68
519910,Vyšná Polianka,49.4286777,21.35696238,Bardejov,49.2926871,21.2756031,Prešovský kraj,Prešov,48.9975724,21.2401811,19.15,"5,692,791",109,22.6,28,63.2,71
519928,Vyšná Voľa,49.2487359,21.363535,Bardejov,49.2926871,21.2756031,Prešovský kraj,Prešov,48.9975724,21.2401811,44.24,"8,838,465",391,10.5,16,47.7,55
519944,Vyšný Kručov,49.161481,21.43798826,Bardejov,49.2926871,21.2756031,Prešovský kraj,Prešov,48.9975724,21.2401811,38.8,"3,956,289",154,25.2,38,33.8,41
519952,Vyšný Tvarožec,49.3892477,21.19352977,Bardejov,49.2926871,21.2756031,Prešovský kraj,Prešov,48.9975724,21.2401811,14.8,"8,211,549",122,18.7,26,59.9,68
519961,Zborov,49.3679102,21.3080014,Bardejov,49.2926871,21.2756031,Prešovský kraj,Prešov,48.9975724,21.2401811,182.62,"19,630,661",3585,10.5,14,51,57
519979,Zlaté,49.3384066,21.2011937,Bardejov,49.2926871,21.2756031,Prešovský kraj,Prešov,48.9975724,21.2401811,54.05,"14,338,576",775,9.5,13,50.7,55
528595,Bratislava - Staré Mesto,48.1405887,17.1123274,Bratislava I,48.155137,17.10102081,Bratislavský kraj,Bratislava,48.1516988,17.1093063,"4,402.39","9,590,124",42220,3.7,7,2.9,5
529311,Bratislava - Podunajské Biskupice,48.130042,17.2074215,Bratislava II,48.12274,17.21033503,Bratislavský kraj,Bratislava,48.1516988,17.1093063,522.26,"42,492,968",22193,1.4,3,12.8,16
529320,Bratislava - Ružinov,48.1493142,17.1645049,Bratislava II,48.12274,17.21033503,Bratislavský kraj,Bratislava,48.1516988,17.1093063,"1,867.49","39,700,420",74140,5.6,8,5.5,10
529338,Bratislava - Vrakuňa,48.145195,17.2004942,Bratislava II,48.12274,17.21033503,Bratislavský kraj,Bratislava,48.1516988,17.1093063,"1,953.40","10,296,679",20114,4.3,9,10,17
529346,Bratislava - Nové Mesto,48.1671622,17.1383524,Bratislava III,48.2001475,17.14807461,Bratislavský kraj,Bratislava,48.1516988,17.1093063,"1,065.38","37,481,484",39932,5.7,10,4.2,7
529354,Bratislava - Rača,48.2117887,17.1534331,Bratislava III,48.2001475,17.14807461,Bratislavský kraj,Bratislava,48.1516988,17.1093063,"1,021.23","23,659,304",24162,1.7,2,9,14
529362,Bratislava - Vajnory,48.2049103,17.2065787,Bratislava III,48.2001475,17.14807461,Bratislavský kraj,Bratislava,48.1516988,17.1093063,440.85,"13,534,087",5967,6.5,9,15.9,18
529401,Bratislava - Devín,48.1745864,16.9826096,Bratislava IV,48.202306,17.01793563,Bratislavský kraj,Bratislava,48.1516988,17.1093063,121.83,"14,007,658",1707,8.1,11,12.3,19
529371,Bratislava - Devínska Nová Ves,48.2091751,16.973894,Bratislava IV,48.202306,17.01793563,Bratislavský kraj,Bratislava,48.1516988,17.1093063,652.18,"24,217,253",15794,4.3,6,15.2,21
529389,Bratislava - Dúbravka,48.1870886,17.0375032,Bratislava IV,48.202306,17.01793563,Bratislavský kraj,Bratislava,48.1516988,17.1093063,"3,896.77","8,648,836",33703,2.7,4,9.4,14
529397,Bratislava - Karlova Ves,48.1592404,17.0526768,Bratislava IV,48.202306,17.01793563,Bratislavský kraj,Bratislava,48.1516988,17.1093063,"3,039.79","10,951,096",33289,6.4,10,6.6,11
529419,Bratislava - Lamač,48.1911965,17.0542794,Bratislava IV,48.202306,17.01793563,Bratislavský kraj,Bratislava,48.1516988,17.1093063,"1,128.80","6,542,373",7385,4.3,7,8.8,13
529427,Bratislava - Záhorská Bystrica,48.2392876,17.0383357,Bratislava IV,48.202306,17.01793563,Bratislavský kraj,Bratislava,48.1516988,17.1093063,192.61,"32,297,811",6221,6.6,10,14.3,20
529435,Bratislava - Čunovo,48.029636,17.1995727,Bratislava V,48.074586,17.11564248,Bratislavský kraj,Bratislava,48.1516988,17.1093063,82.92,"18,626,272",1545,9.5,14,19.1,26
529443,Bratislava - Jarovce,48.0652367,17.1129421,Bratislava V,48.074586,17.11564248,Bratislavský kraj,Bratislava,48.1516988,17.1093063,119.01,"21,342,442",2540,1.1,2,12,16
529460,Bratislava - Petržalka,48.110972,17.1112897,Bratislava V,48.074586,17.11564248,Bratislavský kraj,Bratislava,48.1516988,17.1093063,"3,635.80","28,680,104",104275,6.2,8,5.9,9
529494,Bratislava - Rusovce,48.052647,17.1469174,Bratislava V,48.074586,17.11564248,Bratislavský kraj,Bratislava,48.1516988,17.1093063,162.53,"25,558,261",4154,4.1,7,13.7,19
508446,Bacúch,48.8558662,19.8061102,Brezno,48.8053349,19.6409612,Banskobystrický kraj,Banská Bystrica,48.7384028,19.1573494,23.68,"38,190,647",905,17.2,21,58,63
508462,Beňuš,48.8299192,19.758473,Brezno,48.8053349,19.6409612,Banskobystrický kraj,Banská Bystrica,48.7384028,19.1573494,43.84,"26,780,357",1174,10.7,14,51.5,56
508489,Braväcovo,48.8399218,19.7493604,Brezno,48.8053349,19.6409612,Banskobystrický kraj,Banská Bystrica,48.7384028,19.1573494,23.38,"29,409,193",688,12,16,52.9,58
508497,Brezno,48.8053349,19.6409612,Brezno,48.8053349,19.6409612,Banskobystrický kraj,Banská Bystrica,48.7384028,19.1573494,170.66,"121,956,165",20813,0,0,42.3,44
557251,Bystrá - Brezno,48.8445251,19.6056754,Brezno,48.8053349,19.6409612,Banskobystrický kraj,Banská Bystrica,48.7384028,19.1573494,11.28,"15,873,795",179,11.9,16,40.1,43
508527,Čierny Balog,48.7454408,19.6621951,Brezno,48.8053349,19.6409612,Banskobystrický kraj,Banská Bystrica,48.7384028,19.1573494,34.69,"147,104,270",5103,9.2,13,49.3,52
508535,Dolná Lehota,48.8373755,19.5085214,Brezno,48.8053349,19.6409612,Banskobystrický kraj,Banská Bystrica,48.7384028,19.1573494,12.91,"55,443,041",716,15.1,19,31.9,33
508578,Drábsko,48.65918935,19.67372111,Brezno,48.8053349,19.6409612,Banskobystrický kraj,Banská Bystrica,48.7384028,19.1573494,39.33,"4,767,081",188,22.7,25,62.8,65
508608,Heľpa,48.85023545,19.96178996,Brezno,48.8053349,19.6409612,Banskobystrický kraj,Banská Bystrica,48.7384028,19.1573494,60.52,"41,703,917",2524,26.9,32,67.7,74
508624,Horná Lehota - Brezno,48.8379148,19.5468145,Brezno,48.8053349,19.6409612,Banskobystrický kraj,Banská Bystrica,48.7384028,19.1573494,13.11,"45,886,548",602,12.3,16,36.1,39
508667,Hronec,48.8022172,19.5757179,Brezno,48.8053349,19.6409612,Banskobystrický kraj,Banská Bystrica,48.7384028,19.1573494,33.9,"35,152,528",1192,6.6,9,35.9,38
508691,Jarabá,48.8929975,19.695058,Brezno,48.8053349,19.6409612,Banskobystrický kraj,Banská Bystrica,48.7384028,19.1573494,2.7,"15,385,599",42,15,20,49.4,53
508705,Jasenie,48.8363777,19.4623683,Brezno,48.8053349,19.6409612,Banskobystrický kraj,Banská Bystrica,48.7384028,19.1573494,13.57,"86,294,356",1171,17.9,24,29.3,32
508730,Lom nad Rimavicou,48.6424847,19.6463162,Brezno,48.8053349,19.6409612,Banskobystrický kraj,Banská Bystrica,48.7384028,19.1573494,14.08,"17,404,775",245,23.7,26,63.8,66
508772,Michalová,48.7626694,19.7778938,Brezno,48.8053349,19.6409612,Banskobystrický kraj,Banská Bystrica,48.7384028,19.1573494,94.2,"14,326,632",1350,12,14,53.4,56
508811,Mýto pod Ďumbierom,48.8556374,19.62969424,Brezno,48.8053349,19.6409612,Banskobystrický kraj,Banská Bystrica,48.7384028,19.1573494,50.87,"10,389,902",529,11.4,18,42.7,47
508829,Nemecká,48.8131567,19.4153718,Brezno,48.8053349,19.6409612,Banskobystrický kraj,Banská Bystrica,48.7384028,19.1573494,72.19,"24,630,522",1778,18.9,22,22.5,24
508845,Osrblie,48.7592465,19.5249284,Brezno,48.8053349,19.6409612,Banskobystrický kraj,Banská Bystrica,48.7384028,19.1573494,15.34,"24,015,912",369,13.8,20,43.1,49
508853,Podbrezová,48.8114617,19.5286427,Brezno,48.8053349,19.6409612,Banskobystrický kraj,Banská Bystrica,48.7384028,19.1573494,204.47,"18,565,275",3796,10,12,31.7,32
508870,Pohorelá,48.8614013,20.0153824,Brezno,48.8053349,19.6409612,Banskobystrický kraj,Banská Bystrica,48.7384028,19.1573494,45.7,"46,939,967",2145,32.3,38,73.1,80
508888,Pohronská Polhora,48.7549434,19.7989143,Brezno,48.8053349,19.6409612,Banskobystrický kraj,Banská Bystrica,48.7384028,19.1573494,48.07,"35,768,650",1720,13.8,16,55.2,58
508900,Polomka,48.85,19.85,Brezno,48.8053349,19.6409612,Banskobystrický kraj,Banská Bystrica,48.7384028,19.1573494,31.5,"94,022,988",2962,18.7,22,59.5,64
508934,Predajná,48.8134192,19.4628522,Brezno,48.8053349,19.6409612,Banskobystrický kraj,Banská Bystrica,48.7384028,19.1573494,56.5,"23,203,123",1311,15.4,20,26.4,27
508951,Ráztoka,48.8286789,19.39919268,Brezno,48.8053349,19.6409612,Banskobystrický kraj,Banská Bystrica,48.7384028,19.1573494,33.69,"8,072,594",272,22,26,23.6,26
508993,Sihla,48.657583,19.6468201,Brezno,48.8053349,19.6409612,Banskobystrický kraj,Banská Bystrica,48.7384028,19.1573494,7.1,"26,833,045",191,22.2,24,62.2,64
509043,Šumiac,48.8399675,20.1297354,Brezno,48.8053349,19.6409612,Banskobystrický kraj,Banská Bystrica,48.7384028,19.1573494,15.5,"81,764,900",1268,42.5,49,83.4,91
509051,Telgárt,48.8516106,20.1876799,Brezno,48.8053349,19.6409612,Banskobystrický kraj,Banská Bystrica,48.7384028,19.1573494,27.11,"55,974,134",1518,47.6,54,88.4,96
509086,Valaská,48.8104889,19.5719557,Brezno,48.8053349,19.6409612,Banskobystrický kraj,Banská Bystrica,48.7384028,19.1573494,56.94,"63,313,523",3605,5.7,7,36.4,38
509094,Vaľkovňa,48.8343515,20.0672369,Brezno,48.8053349,19.6409612,Banskobystrický kraj,Banská Bystrica,48.7384028,19.1573494,29.56,"14,853,398",439,36.2,43,77,85
509124,Závadka nad Hronom,48.85039315,19.91284847,Brezno,48.8053349,19.6409612,Banskobystrický kraj,Banská Bystrica,48.7384028,19.1573494,55.85,"41,184,209",2300,23.3,27,64.1,69
517461,Bytča,49.2235748,18.5586825,Bytča,49.2235748,18.5586825,Žilinský kraj,Žilina,49.2234674,18.7393139,264.1,"43,038,274",11367,0,0,20.6,19
581984,Hlboké nad Váhom,49.2115574,18.5926921,Bytča,49.2235748,18.5586825,Žilinský kraj,Žilina,49.2234674,18.7393139,174,"5,359,260",933,3.9,5,17.2,20
517623,Hvozdnica,49.210788,18.487317,Bytča,49.2235748,18.5586825,Žilinský kraj,Žilina,49.2234674,18.7393139,136.81,"8,734,438",1195,6.8,10,24.9,25
517631,Jablonové - Bytča,49.1843639,18.5638023,Bytča,49.2235748,18.5586825,Žilinský kraj,Žilina,49.2234674,18.7393139,214.38,"4,233,160",908,6.5,9,24.3,24
517674,Kolárovice,49.2704872,18.5336714,Bytča,49.2235748,18.5586825,Žilinský kraj,Žilina,49.2234674,18.7393139,65.85,"27,538,444",1814,6.2,8,26,25
517691,Kotešová,49.2404886,18.5987792,Bytča,49.2235748,18.5586825,Žilinský kraj,Žilina,49.2234674,18.7393139,102.81,"20,332,873",2091,3.8,5,15,19
517798,Maršová - Rašov,49.1817034,18.5136793,Bytča,49.2235748,18.5586825,Žilinský kraj,Žilina,49.2234674,18.7393139,104.44,"9,617,728",1005,7.4,9,25.2,24
517861,Petrovice,49.2573649,18.5238434,Bytča,49.2235748,18.5586825,Žilinský kraj,Žilina,49.2234674,18.7393139,49.44,"32,536,105",1609,6.1,8,25.8,25
517895,Predmier,49.1981039,18.5318796,Bytča,49.2235748,18.5586825,Žilinský kraj,Žilina,49.2234674,18.7393139,124.18,"10,895,838",1353,5.4,8,23.2,23
518018,Štiavnik,49.2426836,18.4655093,Bytča,49.2235748,18.5586825,Žilinský kraj,Žilina,49.2234674,18.7393139,72.3,"55,688,991",4027,10.9,17,29,31
517992,Súľov - Hradná,49.1649183,18.5878333,Bytča,49.2235748,18.5586825,Žilinský kraj,Žilina,49.2234674,18.7393139,42.18,"22,939,611",968,9.7,14,27.5,29
518085,Veľké Rovné,49.2921394,18.5828788,Bytča,49.2235748,18.5586825,Žilinský kraj,Žilina,49.2234674,18.7393139,92.23,"40,604,069",3745,9.6,12,21.2,26
509132,Čadca,49.4375146,18.7896041,Čadca,49.4375146,18.7896041,Žilinský kraj,Žilina,49.2234674,18.7393139,419.45,"56,792,020",23822,0,0,30.4,33
509159,Čierne,49.4977488,18.8220684,Čadca,49.4375146,18.7896041,Žilinský kraj,Žilina,49.2234674,18.7393139,213.38,"20,840,842",4447,9,14,41.7,44
509167,Dlhá nad Kysucou,49.3906139,18.6394348,Čadca,49.4375146,18.7896041,Žilinský kraj,Žilina,49.2234674,18.7393139,50.08,"12,259,445",614,17.3,22,37.9,48
509183,Dunajov,49.3600391,18.8203332,Čadca,49.4375146,18.7896041,Žilinský kraj,Žilina,49.2234674,18.7393139,190.02,"6,062,470",1152,13.1,18,18.2,22
509213,Klokočov - Čadca,49.4462061,18.5670825,Čadca,49.4375146,18.7896041,Žilinský kraj,Žilina,49.2234674,18.7393139,44.42,"51,170,833",2273,21.6,28,44,56
509221,Klubina,49.3540142,18.8941435,Čadca,49.4375146,18.7896041,Žilinský kraj,Žilina,49.2234674,18.7393139,34.26,"15,573,710",534,15.4,19,31.5,35
509230,Korňa,49.4142681,18.5471041,Čadca,49.4375146,18.7896041,Žilinský kraj,Žilina,49.2234674,18.7393139,78.22,"25,332,098",1982,20.7,28,43.1,55
509248,Krásno nad Kysucou,49.3897116,18.8318753,Čadca,49.4375146,18.7896041,Žilinský kraj,Žilina,49.2234674,18.7393139,244,"27,770,029",6776,9.1,12,22,24
509299,Makov,49.3695054,18.4745656,Čadca,49.4375146,18.7896041,Žilinský kraj,Žilina,49.2234674,18.7393139,37.54,"46,052,156",1729,27.6,33,40.5,41
509311,Nová Bystrica,49.3467131,19.0130509,Čadca,49.4375146,18.7896041,Žilinský kraj,Žilina,49.2234674,18.7393139,21.56,"125,254,584",2701,24.7,30,40.7,45
509337,Olešná,49.4296759,18.6706686,Čadca,49.4375146,18.7896041,Žilinský kraj,Žilina,49.2234674,18.7393139,97.3,"19,773,605",1924,10.6,15,40.6,47
509345,Oščadnica,49.4357777,18.8838235,Čadca,49.4375146,18.7896041,Žilinský kraj,Žilina,49.2234674,18.7393139,97.71,"58,633,861",5729,9.1,14,29.7,35
509361,Podvysoká,49.414966,18.6679483,Čadca,49.4375146,18.7896041,Žilinský kraj,Žilina,49.2234674,18.7393139,239.07,"5,609,341",1341,10.7,14,40.7,46
509396,Radôstka,49.3237808,18.9416699,Čadca,49.4375146,18.7896041,Žilinský kraj,Žilina,49.2234674,18.7393139,60.89,"13,171,861",802,20.7,26,31.9,40
509400,Raková,49.4439243,18.7335149,Čadca,49.4375146,18.7896041,Žilinský kraj,Žilina,49.2234674,18.7393139,134.09,"41,517,020",5567,5,8,35,40
509451,Skalité,49.4988498,18.89702,Čadca,49.4375146,18.7896041,Žilinský kraj,Žilina,49.2234674,18.7393139,158.31,"33,163,149",5250,14.6,18,47.2,49
509477,Stará Bystrica,49.3461424,18.9381402,Čadca,49.4375146,18.7896041,Žilinský kraj,Žilina,49.2234674,18.7393139,74.6,"36,908,598",2754,19.1,24,35.2,39
509485,Staškov,49.4235748,18.6951166,Čadca,49.4375146,18.7896041,Žilinský kraj,Žilina,49.2234674,18.7393139,128.24,"21,873,710",2805,8.5,12,38.5,44
509493,Svrčinovec,49.480914,18.796231,Čadca,49.4375146,18.7896041,Žilinský kraj,Žilina,49.2234674,18.7393139,220.25,"15,736,529",3466,5.6,9,37.4,39
509507,Turzovka,49.4051578,18.6259805,Čadca,49.4375146,18.7896041,Žilinský kraj,Žilina,49.2234674,18.7393139,214.7,"34,911,126",7496,14.4,20,37.5,48
509515,Vysoká nad Kysucou,49.3804047,18.5511963,Čadca,49.4375146,18.7896041,Žilinský kraj,Žilina,49.2234674,18.7393139,59.45,"43,870,416",2608,21.8,27,45.4,46
509523,Zákopčie,49.4064256,18.7306004,Čadca,49.4375146,18.7896041,Žilinský kraj,Žilina,49.2234674,18.7393139,59.16,"29,631,111",1753,9.5,15,39.6,46
509531,Zborov nad Bystricou,49.3841368,18.8795895,Čadca,49.4375146,18.7896041,Žilinský kraj,Žilina,49.2234674,18.7393139,117.65,"18,708,718",2201,10.9,14,26.9,29
518263,Detva,48.5449223,19.4152478,Detva,48.5449223,19.4152478,Banskobystrický kraj,Banská Bystrica,48.7384028,19.1573494,212.59,"68,088,032",14475,0,0,45.8,41
518271,Detvianska Huta,48.5704172,19.5916129,Detva,48.5449223,19.4152478,Banskobystrický kraj,Banská Bystrica,48.7384028,19.1573494,47.16,"14,312,780",675,19.3,20,61.4,56
518379,Dúbravy,48.5874147,19.3681687,Detva,48.5449223,19.4152478,Banskobystrický kraj,Banská Bystrica,48.7384028,19.1573494,48.53,"19,545,058",949,7.9,12,32.6,42
518450,Horný Tisovník,48.4157897,19.361868,Detva,48.5449223,19.4152478,Banskobystrický kraj,Banská Bystrica,48.7384028,19.1573494,5.44,"32,160,972",175,28,29,53.5,56
518468,Hriňová,48.5764603,19.525865,Detva,48.5449223,19.4152478,Banskobystrický kraj,Banská Bystrica,48.7384028,19.1573494,58.43,"126,482,792",7390,13.7,15,55.7,50
518492,Klokoč,48.49823795,19.34018161,Detva,48.5449223,19.4152478,Banskobystrický kraj,Banská Bystrica,48.7384028,19.1573494,49.41,"9,835,840",486,17.8,19,43.3,47
580520,Korytárky,48.5482522,19.4687793,Detva,48.5449223,19.4152478,Banskobystrický kraj,Banská Bystrica,48.7384028,19.1573494,106.58,"9,035,247",963,8.3,8,50.4,43
518549,Kriváň,48.5302206,19.4449571,Detva,48.5449223,19.4152478,Banskobystrický kraj,Banská Bystrica,48.7384028,19.1573494,192.81,"9,109,773",1757,4.4,6,47.9,43
511510,Látky,48.5805136,19.6329071,Detva,48.5449223,19.4152478,Banskobystrický kraj,Banská Bystrica,48.7384028,19.1573494,12.94,"45,738,398",592,22.9,24,65,59
511731,Podkriváň,48.5141953,19.4570724,Detva,48.5449223,19.4152478,Banskobystrický kraj,Banská Bystrica,48.7384028,19.1573494,22,"25,886,816",570,9.5,10,51.5,45
518794,Slatinské Lazy,48.50296435,19.30202978,Detva,48.5449223,19.4152478,Banskobystrický kraj,Banská Bystrica,48.7384028,19.1573494,74.99,"7,274,112",546,15.2,15,40.8,43
518816,Stará Huta,48.4733927,19.3434751,Detva,48.5449223,19.4152478,Banskobystrický kraj,Banská Bystrica,48.7384028,19.1573494,13.31,"24,575,639",327,22.7,23,48.2,50
518824,Stožok,48.5214893,19.36336122,Detva,48.5449223,19.4152478,Banskobystrický kraj,Banská Bystrica,48.7384028,19.1573494,119.28,"8,945,287",1067,7.8,11,42.8,42
518921,Vígľaš,48.5554096,19.2926266,Detva,48.5449223,19.4152478,Banskobystrický kraj,Banská Bystrica,48.7384028,19.1573494,49.3,"31,978,160",1577,11.3,10,33.9,34
518930,Vígľašská Huta - Kalinka,48.4936815,19.2767309,Detva,48.5449223,19.4152478,Banskobystrický kraj,Banská Bystrica,48.7384028,19.1573494,19.91,"16,195,670",323,17.7,19,43.2,46
580813,Bziny,49.2272891,19.3226271,Dolný Kubín,49.2064767,19.29904582,Žilinský kraj,Žilina,49.2234674,18.7393139,99.28,"5,842,262",580,5.6,9,66.8,66
509698,Chlebnice,49.229216,19.4646448,Dolný Kubín,49.2064767,19.29904582,Žilinský kraj,Žilina,49.2234674,18.7393139,63.96,"25,273,865",1617,22,26,83.7,83
509639,Dlhá nad Oravou,49.2666113,19.4482282,Dolný Kubín,49.2064767,19.29904582,Žilinský kraj,Žilina,49.2234674,18.7393139,59.36,"24,310,531",1443,17.2,18,78.9,76
509540,Dolný Kubín,49.2064767,19.29904582,Dolný Kubín,49.2064767,19.29904582,Žilinský kraj,Žilina,49.2234674,18.7393139,338.15,"55,026,802",18608,0,0,63.7,61
509671,Horná Lehota - Dolný Kubín,49.2547766,19.4005619,Dolný Kubín,49.2064767,19.29904582,Žilinský kraj,Žilina,49.2234674,18.7393139,36.41,"15,337,261",559,15.3,16,77,73
509701,Istebné,49.212337,19.2223156,Dolný Kubín,49.2064767,19.29904582,Žilinský kraj,Žilina,49.2234674,18.7393139,119.99,"11,292,376",1355,8.1,11,58,54
509710,Jasenová,49.1761,19.2947,Dolný Kubín,49.2064767,19.29904582,Žilinský kraj,Žilina,49.2234674,18.7393139,35.16,"11,929,549",420,4.2,6,67.9,66
509744,Kraľovany,49.1523357,19.1281945,Dolný Kubín,49.2064767,19.29904582,Žilinský kraj,Žilina,49.2234674,18.7393139,22.92,"18,808,152",431,18.7,22,45.3,41
509761,Krivá,49.2825832,19.4791415,Dolný Kubín,49.2064767,19.29904582,Žilinský kraj,Žilina,49.2234674,18.7393139,42.59,"18,877,031",804,20.7,22,82.4,80
509787,Leštiny,49.1895258,19.3495132,Dolný Kubín,49.2064767,19.29904582,Žilinský kraj,Žilina,49.2234674,18.7393139,40.96,"6,932,944",284,6.2,9,69.9,69
509825,Malatiná,49.185823,19.4324205,Dolný Kubín,49.2064767,19.29904582,Žilinský kraj,Žilina,49.2234674,18.7393139,43.05,"19,140,422",824,13.3,20,77,81
509833,Medzibrodie nad Oravou,49.2343511,19.3444637,Dolný Kubín,49.2064767,19.29904582,Žilinský kraj,Žilina,49.2234674,18.7393139,86.22,"6,575,974",567,8.1,13,69.3,70
509922,Oravská Poruba,49.1976702,19.253191,Dolný Kubín,49.2064767,19.29904582,Žilinský kraj,Žilina,49.2234674,18.7393139,80.36,"13,258,418",1066,6,9,59.8,56
509957,Oravský Podzámok,49.2610972,19.3570525,Dolný Kubín,49.2064767,19.29904582,Žilinský kraj,Žilina,49.2234674,18.7393139,38.78,"35,247,684",1367,10.1,12,71.8,69
509965,Osádka,49.1851864,19.3880439,Dolný Kubín,49.2064767,19.29904582,Žilinský kraj,Žilina,49.2234674,18.7393139,41.3,"4,079,804",169,9.1,13,72.8,74
509973,Párnica,49.1946899,19.1968319,Dolný Kubín,49.2064767,19.29904582,Žilinský kraj,Žilina,49.2234674,18.7393139,17.92,"51,992,658",932,9.6,13,54.4,49
509990,Pokryváč,49.2013128,19.3950257,Dolný Kubín,49.2064767,19.29904582,Žilinský kraj,Žilina,49.2234674,18.7393139,41.66,"3,900,364",163,11.1,17,74.9,77
510009,Pribiš,49.2225209,19.4039631,Dolný Kubín,49.2064767,19.29904582,Žilinský kraj,Žilina,49.2234674,18.7393139,55.22,"8,402,170",464,17.2,22,78.9,80
510017,Pucov,49.2176884,19.3787119,Dolný Kubín,49.2064767,19.29904582,Žilinský kraj,Žilina,49.2234674,18.7393139,88.5,"9,948,970",881,13,20,74.2,77
510041,Sedliacka Dubová,49.2613028,19.4299054,Dolný Kubín,49.2064767,19.29904582,Žilinský kraj,Žilina,49.2234674,18.7393139,46.07,"11,646,049",537,15.2,15,76.9,73
510165,Veličná,49.2050484,19.2451279,Dolný Kubín,49.2064767,19.29904582,Žilinský kraj,Žilina,49.2234674,18.7393139,46.91,"29,302,347",1375,5,7,58.6,54
510181,Vyšný Kubín,49.1833333,19.3166667,Dolný Kubín,49.2064767,19.29904582,Žilinský kraj,Žilina,49.2234674,18.7393139,62.63,"12,742,145",798,3.4,5,67.1,65
510254,Žaškov,49.1708175,19.2178759,Dolný Kubín,49.2064767,19.29904582,Žilinský kraj,Žilina,49.2234674,18.7393139,64.44,"24,721,863",1593,12.2,18,57.5,54
510211,Zázrivá,49.2762228,19.1548037,Dolný Kubín,49.2064767,19.29904582,Žilinský kraj,Žilina,49.2234674,18.7393139,38.91,"67,249,192",2617,21.2,26,35.2,40
501441,Báč,48.0045275,17.377711,Dunajská Streda,47.995602,17.61326519,Trnavský kraj,Trnava,48.3767652,17.5858175,139.05,"3,923,116",546,18.1,18,59.8,58
501450,Baka,47.9046685,17.5265767,Dunajská Streda,47.995602,17.61326519,Trnavský kraj,Trnava,48.3767652,17.5858175,54.73,"19,989,125",1094,14.3,22,79.3,76
501468,Baloň,47.8300902,17.6700761,Dunajská Streda,47.995602,17.61326519,Trnavský kraj,Trnava,48.3767652,17.5858175,45.23,"16,073,223",727,26.5,32,82.6,81
555517,Bellova Ves,48.0894053,17.5091999,Dunajská Streda,47.995602,17.61326519,Trnavský kraj,Trnava,48.3767652,17.5858175,47.62,"6,929,431",330,20.1,26,51.5,51
501484,Blahová,48.0860549,17.5384211,Dunajská Streda,47.995602,17.61326519,Trnavský kraj,Trnava,48.3767652,17.5858175,31.77,"11,377,874",362,17.2,23,53.4,53
501492,Blatná na Ostrove,48.0060487,17.440189,Dunajská Streda,47.995602,17.61326519,Trnavský kraj,Trnava,48.3767652,17.5858175,87.58,"10,778,355",944,13.8,16,56.2,58
503461,Bodíky,47.9259092,17.4576976,Dunajská Streda,47.995602,17.61326519,Trnavský kraj,Trnava,48.3767652,17.5858175,11.13,"24,754,882",276,25.2,31,83,84
501506,Boheľov,47.9189841,17.6946,Dunajská Streda,47.995602,17.61326519,Trnavský kraj,Trnava,48.3767652,17.5858175,42.03,"8,292,428",349,13.5,18,67,66
501514,Čakany,48.1161884,17.3630666,Dunajská Streda,47.995602,17.61326519,Trnavský kraj,Trnava,48.3767652,17.5858175,57.84,"11,186,863",647,25.7,30,46.3,44
580554,Čenkovce,48.1062067,17.4331093,Dunajská Streda,47.995602,17.61326519,Trnavský kraj,Trnava,48.3767652,17.5858175,94.25,"11,570,038",1091,22.4,28,43.6,39
501531,Čiližská Radvaň,47.8350071,17.6924301,Dunajská Streda,47.995602,17.61326519,Trnavský kraj,Trnava,48.3767652,17.5858175,54.39,"21,411,683",1165,27.5,31,80.9,79
501549,Dobrohošť,47.983335,17.3666631,Dunajská Streda,47.995602,17.61326519,Trnavský kraj,Trnava,48.3767652,17.5858175,110.34,"4,703,846",519,34.5,41,85.4,74
501557,Dolný Bar,47.9665158,17.6858624,Dunajská Streda,47.995602,17.61326519,Trnavský kraj,Trnava,48.3767652,17.5858175,96.41,"8,199,530",791,6.6,9,61.3,60
501611,Dolný Štál,47.9354872,17.7152825,Dunajská Streda,47.995602,17.61326519,Trnavský kraj,Trnava,48.3767652,17.5858175,62.94,"29,996,990",1888,11,15,64.7,62
501433,Dunajská Streda,47.995602,17.61326519,Dunajská Streda,47.995602,17.61326519,Trnavský kraj,Trnava,48.3767652,17.5858175,720.24,"31,450,835",22652,0,0,59.2,57
555541,Dunajský Klátov,48.0326901,17.6923812,Dunajská Streda,47.995602,17.61326519,Trnavský kraj,Trnava,48.3767652,17.5858175,159.83,"4,573,660",731,8.4,11,51.1,47
501573,Gabčíkovo,47.8951059,17.5781248,Dunajská Streda,47.995602,17.61326519,Trnavský kraj,Trnava,48.3767652,17.5858175,104.13,"52,396,152",5456,13.1,16,70.9,70
501581,Holice,47.9916159,17.4809847,Dunajská Streda,47.995602,17.61326519,Trnavský kraj,Trnava,48.3767652,17.5858175,90.13,"23,193,891",2091,10.9,13,65.8,58
501590,Horná Potôň,48.0398752,17.5001658,Dunajská Streda,47.995602,17.61326519,Trnavský kraj,Trnava,48.3767652,17.5858175,75.18,"28,365,314",2133,10.7,13,54.7,54
555568,Horné Mýto,48.0110295,17.7511796,Dunajská Streda,47.995602,17.61326519,Trnavský kraj,Trnava,48.3767652,17.5858175,75.99,"12,107,415",920,14.6,20,55.3,53
501603,Horný Bar,47.9478198,17.4637369,Dunajská Streda,47.995602,17.61326519,Trnavský kraj,Trnava,48.3767652,17.5858175,105.6,"11,775,086",1244,17.5,22,72.4,67
501620,Hubice,48.0961007,17.3965567,Dunajská Streda,47.995602,17.61326519,Trnavský kraj,Trnava,48.3767652,17.5858175,116.24,"5,359,831",623,22.3,25,45.1,41
501638,Hviezdoslavov,48.0669385,17.3489811,Dunajská Streda,47.995602,17.61326519,Trnavský kraj,Trnava,48.3767652,17.5858175,217.64,"10,501,516",2286,26.2,24,51,49
501654,Jahodná,48.050525,17.7049589,Dunajská Streda,47.995602,17.61326519,Trnavský kraj,Trnava,48.3767652,17.5858175,102.16,"15,691,325",1603,11.1,14,48.4,44
501662,Janíky,48.1428001,17.3948095,Dunajská Streda,47.995602,17.61326519,Trnavský kraj,Trnava,48.3767652,17.5858175,80.88,"11,343,457",918,26.5,34,44.2,40
501671,Jurová,47.9349144,17.5220539,Dunajská Streda,47.995602,17.61326519,Trnavský kraj,Trnava,48.3767652,17.5858175,43.78,"10,734,552",470,11.2,18,69.7,72
501689,Kľúčovec,47.7942078,17.7171631,Dunajská Streda,47.995602,17.61326519,Trnavský kraj,Trnava,48.3767652,17.5858175,28.56,"12,708,145",363,30.4,35,83.8,83
501697,Kostolné Kračany,47.9840542,17.5745907,Dunajská Streda,47.995602,17.61326519,Trnavský kraj,Trnava,48.3767652,17.5858175,100.03,"13,915,795",1392,3.8,6,62.3,61
501701,Kráľovičove Kračany,47.9868241,17.551855,Dunajská Streda,47.995602,17.61326519,Trnavský kraj,Trnava,48.3767652,17.5858175,82.35,"13,279,020",1094,5.6,9,70.3,63
501719,Kútniky,47.9749631,17.6596926,Dunajská Streda,47.995602,17.61326519,Trnavský kraj,Trnava,48.3767652,17.5858175,131.3,"10,986,301",1443,4.8,7,59.5,59
501727,Kvetoslavov,48.0552073,17.3470417,Dunajská Streda,47.995602,17.61326519,Trnavský kraj,Trnava,48.3767652,17.5858175,206.18,"8,099,730",1670,24.5,21,51.6,48
580597,Kyselica,47.9860045,17.3896046,Dunajská Streda,47.995602,17.61326519,Trnavský kraj,Trnava,48.3767652,17.5858175,54.83,"3,647,908",200,18,20,62.8,62
501735,Lehnice,48.0515285,17.4576393,Dunajská Streda,47.995602,17.61326519,Trnavský kraj,Trnava,48.3767652,17.5858175,113.48,"25,388,107",2881,13.8,16,51,50
501743,Lúč na Ostrove,47.9751358,17.5202839,Dunajská Streda,47.995602,17.61326519,Trnavský kraj,Trnava,48.3767652,17.5858175,43.71,"15,890,296",695,9.1,12,68.9,63
555606,Macov,48.0205885,17.4310376,Dunajská Streda,47.995602,17.61326519,Trnavský kraj,Trnava,48.3767652,17.5858175,153.1,"2,720,453",417,16,19,55.5,57
555649,Mad,47.95202,17.6606368,Dunajská Streda,47.995602,17.61326519,Trnavský kraj,Trnava,48.3767652,17.5858175,74.53,"7,714,584",575,6.5,10,64,63
555665,Malé Dvorníky,48.0132934,17.642447,Dunajská Streda,47.995602,17.61326519,Trnavský kraj,Trnava,48.3767652,17.5858175,170.14,"6,885,444",1172,3.4,6,57.6,55
501760,Medveďov,47.8000105,17.6607602,Dunajská Streda,47.995602,17.61326519,Trnavský kraj,Trnava,48.3767652,17.5858175,51.4,"10,388,839",534,26.7,31,84.1,81
501786,Michal na Ostrove,48.0239372,17.5113977,Dunajská Streda,47.995602,17.61326519,Trnavský kraj,Trnava,48.3767652,17.5858175,95.7,"10,653,393",1020,10.1,13,57,58
501778,Mierovo,48.0694369,17.3858373,Dunajská Streda,47.995602,17.61326519,Trnavský kraj,Trnava,48.3767652,17.5858175,71.46,"6,192,393",443,20.3,24,49,46
501930,Ňárad,47.834741,17.6130145,Dunajská Streda,47.995602,17.61326519,Trnavský kraj,Trnava,48.3767652,17.5858175,60.02,"10,446,988",627,20.6,24,78.4,77
501808,Nový Život,48.1182202,17.4645796,Dunajská Streda,47.995602,17.61326519,Trnavský kraj,Trnava,48.3767652,17.5858175,99.96,"22,483,693",2248,23.4,31,45.3,41
501816,Ohrady,47.9898028,17.6994151,Dunajská Streda,47.995602,17.61326519,Trnavský kraj,Trnava,48.3767652,17.5858175,91.19,"14,766,269",1347,7.2,12,59.4,59
501824,Okoč,47.886638,17.8090464,Dunajská Streda,47.995602,17.61326519,Trnavský kraj,Trnava,48.3767652,17.5858175,55.58,"63,426,773",3526,19.8,28,67.4,67
501832,Oľdza,48.0856867,17.4203116,Dunajská Streda,47.995602,17.61326519,Trnavský kraj,Trnava,48.3767652,17.5858175,62.47,"8,860,607",554,19,23,45.6,43
501859,Orechová Potôň,48.0165542,17.5320809,Dunajská Streda,47.995602,17.61326519,Trnavský kraj,Trnava,48.3767652,17.5858175,77.15,"21,068,777",1626,7.4,11,58.7,60
501867,Padáň,47.9278705,17.6840771,Dunajská Streda,47.995602,17.61326519,Trnavský kraj,Trnava,48.3767652,17.5858175,52.72,"16,975,824",895,9.7,15,67.3,65
501883,Pataš,47.8745169,17.6532283,Dunajská Streda,47.995602,17.61326519,Trnavský kraj,Trnava,48.3767652,17.5858175,83.01,"9,384,354",779,19,25,73.2,75
582522,Potônske Lúky,48.0931888,17.5906549,Dunajská Streda,47.995602,17.61326519,Trnavský kraj,Trnava,48.3767652,17.5858175,56.84,"4,944,123",281,17.4,24,59,62
555720,Povoda,47.9731243,17.6386384,Dunajská Streda,47.995602,17.61326519,Trnavský kraj,Trnava,48.3767652,17.5858175,160.62,"6,008,025",965,3.5,6,61,59
501891,Rohovce,47.997222,17.408333,Dunajská Streda,47.995602,17.61326519,Trnavský kraj,Trnava,48.3767652,17.5858175,72.03,"16,145,441",1163,16,17,63.2,61
501905,Šamorín,48.0275832,17.3115709,Dunajská Streda,47.995602,17.61326519,Trnavský kraj,Trnava,48.3767652,17.5858175,301.51,"44,348,099",13372,24.9,22,55.3,52
501875,Sap,47.8221556,17.6157716,Dunajská Streda,47.995602,17.61326519,Trnavský kraj,Trnava,48.3767652,17.5858175,40.98,"12,432,125",510,22,25,79.8,79
501913,Štvrtok na Ostrove,48.098497,17.3545856,Dunajská Streda,47.995602,17.61326519,Trnavský kraj,Trnava,48.3767652,17.5858175,131.94,"13,066,067",1724,23.4,27,49.8,46
501921,Topoľníky,47.9661243,17.7832137,Dunajská Streda,47.995602,17.61326519,Trnavský kraj,Trnava,48.3767652,17.5858175,90.7,"34,819,918",3158,15.7,19,57.9,55
555576,Trhová Hradská,47.9882576,17.7495316,Dunajská Streda,47.995602,17.61326519,Trnavský kraj,Trnava,48.3767652,17.5858175,87.02,"24,757,433",2155,12,18,58.4,57
501956,Trnávka - Dunajská Streda,48.0137714,17.4056347,Dunajská Streda,47.995602,17.61326519,Trnavský kraj,Trnava,48.3767652,17.5858175,63.98,"7,971,529",510,17.6,19,58.1,61
501964,Trstená na Ostrove,47.9170349,17.501958,Dunajská Streda,47.995602,17.61326519,Trnavský kraj,Trnava,48.3767652,17.5858175,91.45,"6,254,616",572,13.9,21,77,72
501972,Veľká Paka,48.0392892,17.4077885,Dunajská Streda,47.995602,17.61326519,Trnavský kraj,Trnava,48.3767652,17.5858175,52.08,"18,355,823",956,18.9,23,55.3,53
501981,Veľké Blahovo,48.01158,17.5784956,Dunajská Streda,47.995602,17.61326519,Trnavský kraj,Trnava,48.3767652,17.5858175,88.05,"18,132,485",1597,3.5,5,62.5,62
555673,Veľké Dvorníky,48.0000095,17.6527575,Dunajská Streda,47.995602,17.61326519,Trnavský kraj,Trnava,48.3767652,17.5858175,167.32,"7,990,590",1337,3.5,5,55.7,51
501522,Veľký Meder,47.8557806,17.7693671,Dunajská Streda,47.995602,17.61326519,Trnavský kraj,Trnava,48.3767652,17.5858175,154.73,"55,547,780",8595,21.4,25,74.8,72
555746,Vieska - Dunajská Streda,48.0034905,17.528454,Dunajská Streda,47.995602,17.61326519,Trnavský kraj,Trnava,48.3767652,17.5858175,61.27,"6,691,237",410,7.4,10,68.6,60
501999,Vojka nad Dunajom,47.9748546,17.384027,Dunajská Streda,47.995602,17.61326519,Trnavský kraj,Trnava,48.3767652,17.5858175,55.23,"8,211,618",454,33.5,40,86.9,77
502006,Vrakúň,47.937546,17.6039197,Dunajská Streda,47.995602,17.61326519,Trnavský kraj,Trnava,48.3767652,17.5858175,71.36,"38,336,315",2736,7.5,10,65.3,63
502014,Vydrany,48.0170341,17.5856348,Dunajská Streda,47.995602,17.61326519,Trnavský kraj,Trnava,48.3767652,17.5858175,108.23,"16,049,091",1737,3.5,6,62.5,62
502022,Zlaté Klasy,48.1194295,17.4195957,Dunajská Streda,47.995602,17.61326519,Trnavský kraj,Trnava,48.3767652,17.5858175,293.91,"11,962,995",3516,22.9,29,41.9,37
503673,Abrahám,48.2479831,17.6194193,Galanta,48.1910498,17.7270629,Trnavský kraj,Trnava,48.3767652,17.5858175,66.7,"15,779,514",1053,13.7,17,18.3,21
503690,Čierna Voda,48.1305218,17.6509752,Galanta,48.1910498,17.7270629,Trnavský kraj,Trnava,48.3767652,17.5858175,115.92,"12,141,874",1408,11.1,15,39.5,35
503703,Čierny Brod,48.151335,17.6560302,Galanta,48.1910498,17.7270629,Trnavský kraj,Trnava,48.3767652,17.5858175,93.28,"17,698,561",1651,8.5,11,37,31
555789,Dolná Streda,48.2666667,17.75,Galanta,48.1910498,17.7270629,Trnavský kraj,Trnava,48.3767652,17.5858175,121.92,"13,467,394",1642,9.3,11,20.2,15
503746,Dolné Saliby,48.1058442,17.781458,Galanta,48.1910498,17.7270629,Trnavský kraj,Trnava,48.3767652,17.5858175,107.12,"18,683,997",2002,11.7,15,39,34
503754,Dolný Chotár,48.0008569,17.8688973,Galanta,48.1910498,17.7270629,Trnavský kraj,Trnava,48.3767652,17.5858175,27.12,"13,881,640",377,26,33,53.2,52
503665,Galanta,48.1910498,17.7270629,Galanta,48.1910498,17.7270629,Trnavský kraj,Trnava,48.3767652,17.5858175,443.07,"33,911,382",15025,0,0,28.6,24
503762,Gáň,48.2319271,17.7186226,Galanta,48.1910498,17.7270629,Trnavský kraj,Trnava,48.3767652,17.5858175,139.29,"6,174,008",860,5.2,8,22.7,18
503771,Horné Saliby,48.1226481,17.7520836,Galanta,48.1910498,17.7270629,Trnavský kraj,Trnava,48.3767652,17.5858175,93.92,"34,838,095",3272,10.3,14,37.6,33
503789,Hoste,48.2610586,17.6366653,Galanta,48.1910498,17.7270629,Trnavský kraj,Trnava,48.3767652,17.5858175,99.33,"4,484,895",446,15.9,20,16,18
503827,Jánovce - Galanta,48.1775854,17.5327738,Galanta,48.1910498,17.7270629,Trnavský kraj,Trnava,48.3767652,17.5858175,138.14,"3,590,518",496,19.1,24,36.5,34
503835,Jelka,48.145206,17.5068773,Galanta,48.1910498,17.7270629,Trnavský kraj,Trnava,48.3767652,17.5858175,121.38,"32,658,462",3964,22,27,39.4,37
503843,Kajal,48.1855384,17.7863393,Galanta,48.1910498,17.7270629,Trnavský kraj,Trnava,48.3767652,17.5858175,111.14,"13,824,756",1537,4.9,7,30.2,24
503860,Košúty,48.1715682,17.6582033,Galanta,48.1910498,17.7270629,Trnavský kraj,Trnava,48.3767652,17.5858175,120.81,"14,729,988",1780,7,9,31.3,27
503878,Kráľov Brod,48.0604828,17.8275838,Galanta,48.1910498,17.7270629,Trnavský kraj,Trnava,48.3767652,17.5858175,45.53,"23,667,657",1078,18.2,22,45.5,40
582638,Malá Mača,48.2232584,17.6384202,Galanta,48.1910498,17.7270629,Trnavský kraj,Trnava,48.3767652,17.5858175,73.36,"7,974,454",585,10.8,14,28.3,24
555754,Matúškovo,48.1666667,17.7333333,Galanta,48.1910498,17.7270629,Trnavský kraj,Trnava,48.3767652,17.5858175,188.88,"11,952,209",2258,3.7,6,30.9,25
503924,Mostová,48.1401623,17.6785943,Galanta,48.1910498,17.7270629,Trnavský kraj,Trnava,48.3767652,17.5858175,62.81,"25,157,096",1580,8.9,12,37.4,31
503959,Pata,48.2757628,17.8252821,Galanta,48.1910498,17.7270629,Trnavský kraj,Trnava,48.3767652,17.5858175,181.55,"17,549,124",3186,15.5,16,26.4,19
503967,Pusté Sady,48.3118437,17.8278257,Galanta,48.1910498,17.7270629,Trnavský kraj,Trnava,48.3767652,17.5858175,74.77,"8,031,342",601,19.6,21,30.5,24
503975,Pusté Úľany,48.231416,17.5687687,Galanta,48.1910498,17.7270629,Trnavský kraj,Trnava,48.3767652,17.5858175,73.63,"24,540,490",1807,15.1,18,22.9,22
504033,Šalgočka,48.3342651,17.8147076,Galanta,48.1910498,17.7270629,Trnavský kraj,Trnava,48.3767652,17.5858175,98.68,"4,747,462",469,22.4,25,33.4,28
504009,Sereď,48.2889032,17.7308808,Galanta,48.1910498,17.7270629,Trnavský kraj,Trnava,48.3767652,17.5858175,505.1,"30,459,297",15385,13.3,16,17.8,16
504041,Šintava,48.2828836,17.7650607,Galanta,48.1910498,17.7270629,Trnavský kraj,Trnava,48.3767652,17.5858175,150.24,"11,564,718",1738,16.5,17,19.7,19
504017,Sládkovičovo,48.2053536,17.6441038,Galanta,48.1910498,17.7270629,Trnavský kraj,Trnava,48.3767652,17.5858175,178.54,"29,094,876",5195,8,11,26.8,22
504050,Šoporňa,48.2537227,17.81575896,Galanta,48.1910498,17.7270629,Trnavský kraj,Trnava,48.3767652,17.5858175,132.14,"31,393,933",4149,15,17,26,20
504076,Tomášikovo,48.0811834,17.6941428,Galanta,48.1910498,17.7270629,Trnavský kraj,Trnava,48.3767652,17.5858175,79.89,"21,134,662",1689,15.7,19,44.1,39
504084,Topoľnica,48.1710782,17.7948233,Galanta,48.1910498,17.7270629,Trnavský kraj,Trnava,48.3767652,17.5858175,75.71,"10,474,503",793,6.6,8,31.9,26
504106,Trstice,48.0158466,17.8045595,Galanta,48.1910498,17.7270629,Trnavský kraj,Trnava,48.3767652,17.5858175,186.78,"20,266,680",3786,23.8,28,51.1,47
504114,Váhovce,48.25,17.7833333,Galanta,48.1910498,17.7270629,Trnavský kraj,Trnava,48.3767652,17.5858175,131.11,"15,975,328",2095,10.1,16,22.7,20
504122,Veľká Mača,48.2439419,17.6931831,Galanta,48.1910498,17.7270629,Trnavský kraj,Trnava,48.3767652,17.5858175,171.4,"14,813,453",2539,7.6,11,20.7,16
504131,Veľké Úľany,48.1628869,17.5762098,Galanta,48.1910498,17.7270629,Trnavský kraj,Trnava,48.3767652,17.5858175,112.42,"41,855,572",4706,16.8,20,34.2,30
504149,Veľký Grob,48.2513676,17.4941888,Galanta,48.1910498,17.7270629,Trnavský kraj,Trnava,48.3767652,17.5858175,58.53,"23,545,424",1378,21.5,24,20.9,24
504157,Vinohrady nad Váhom,48.307478,17.764783,Galanta,48.1910498,17.7270629,Trnavský kraj,Trnava,48.3767652,17.5858175,150.62,"10,702,142",1612,17.3,20,21.8,21
504173,Vozokany - Galanta,48.104941,17.6878179,Galanta,48.1910498,17.7270629,Trnavský kraj,Trnava,48.3767652,17.5858175,90.55,"12,893,169",1168,13.1,17,41.6,36
504181,Zemianske Sady,48.3280677,17.8197676,Galanta,48.1910498,17.7270629,Trnavský kraj,Trnava,48.3767652,17.5858175,107.1,"8,053,334",863,22,24,32.9,28
526509,Gelnica,48.8532052,20.9369156,Gelnica,48.8532052,20.9369156,Košický kraj,Košice,48.7172272,21.2496774,104.51,"57,652,137",6025,0,0,40.6,45
526541,Helcmanovce,48.83723035,20.85387108,Gelnica,48.8532052,20.9369156,Košický kraj,Košice,48.7172272,21.2496774,110.43,"12,850,313",1419,10.7,14,51.2,57
526550,Henclová,48.7858883,20.5974589,Gelnica,48.8532052,20.9369156,Košický kraj,Košice,48.7172272,21.2496774,6.6,"14,319,426",95,38,46,78.5,89
543144,Hrišovce,48.949675,20.90816143,Gelnica,48.8532052,20.9369156,Košický kraj,Košice,48.7172272,21.2496774,36.75,"7,958,417",293,19.7,23,48.7,53
543187,Jaklovce,48.8723709,20.9894511,Gelnica,48.8532052,20.9369156,Košický kraj,Košice,48.7172272,21.2496774,108.14,"17,251,279",1866,5.4,8,35.9,40
543233,Kluknava,48.9219378,20.9381003,Gelnica,48.8532052,20.9369156,Košický kraj,Košice,48.7172272,21.2496774,45.33,"33,954,507",1539,16,17,45,47
543241,Kojšov,48.8219398,20.9882394,Gelnica,48.8532052,20.9369156,Košický kraj,Košice,48.7172272,21.2496774,22.18,"31,804,994",706,12.9,17,35.7,40
543322,Margecany,48.8939972,21.0124715,Gelnica,48.8532052,20.9369156,Košický kraj,Košice,48.7172272,21.2496774,107.58,"17,614,357",1895,8.6,11,37.6,41
543365,Mníšek nad Hnilcom,48.8060044,20.8065464,Gelnica,48.8532052,20.9369156,Košický kraj,Košice,48.7172272,21.2496774,45.75,"39,410,833",1803,15.4,18,55.9,61
543373,Nálepkovo,48.8414126,20.6200652,Gelnica,48.8532052,20.9369156,Košický kraj,Košice,48.7172272,21.2496774,63.79,"55,585,319",3546,33.1,38,73.6,82
543497,Prakovce,48.8167474,20.8999535,Gelnica,48.8532052,20.9369156,Košický kraj,Košice,48.7172272,21.2496774,104.77,"31,907,692",3343,6.4,8,46.9,51
543501,Richnava,48.9363459,20.92459809,Gelnica,48.8532052,20.9369156,Košický kraj,Košice,48.7172272,21.2496774,451.58,"6,951,110",3139,17.9,20,47,50
543551,Smolnícka Huta,48.7456398,20.7745822,Gelnica,48.8532052,20.9369156,Košický kraj,Košice,48.7172272,21.2496774,12.69,"37,325,571",474,23.1,26,58.1,64
543560,Smolník,48.7289504,20.7390697,Gelnica,48.8532052,20.9369156,Košický kraj,Košice,48.7172272,21.2496774,14.58,"68,974,930",1006,26.4,31,54.7,59
543632,Stará Voda,48.80363415,20.68007475,Gelnica,48.8532052,20.9369156,Košický kraj,Košice,48.7172272,21.2496774,60.14,"3,283,750",198,27.7,33,68.2,76
543659,Švedlár,48.8121847,20.7128429,Gelnica,48.8532052,20.9369156,Košický kraj,Košice,48.7172272,21.2496774,25.85,"84,490,877",2185,24.3,28,64.8,71
543683,Úhorná,48.7113808,20.66182277,Gelnica,48.8532052,20.9369156,Košický kraj,Košice,48.7172272,21.2496774,15.63,"8,826,571",138,35.5,41,62,67
543705,Veľký Folkmar,48.8574161,21.0146752,Gelnica,48.8532052,20.9369156,Košický kraj,Košice,48.7172272,21.2496774,38.94,"23,102,510",900,8.5,11,32.5,35
526649,Žakarovce,48.88093955,20.92801578,Gelnica,48.8532052,20.9369156,Košický kraj,Košice,48.7172272,21.2496774,83.03,"8,617,715",716,6.2,9,41.4,47
526631,Závadka - Gelnica,48.8648005,20.6171867,Gelnica,48.8532052,20.9369156,Košický kraj,Košice,48.7172272,21.2496774,27.98,"22,427,807",628,37.9,45,78.5,88
506800,Bojničky,48.3902415,17.80175827,Hlohovec,48.4278838,17.798782,Trnavský kraj,Trnava,48.3767652,17.5858175,152.68,"9,267,621",1415,6.5,9,33.4,29
506885,Červeník,48.4599182,17.7563015,Hlohovec,48.4278838,17.798782,Trnavský kraj,Trnava,48.3767652,17.5858175,171.2,"9,938,622",1702,6,9,18.2,19
506958,Dolné Otrokovce,48.4656637,17.9117881,Hlohovec,48.4278838,17.798782,Trnavský kraj,Trnava,48.3767652,17.5858175,42.23,"9,305,231",393,15.4,17,42.1,37
506966,Dolné Trhovište,48.4428334,17.90854619,Hlohovec,48.4278838,17.798782,Trnavský kraj,Trnava,48.3767652,17.5858175,64.58,"10,057,251",650,11.2,14,37.9,34
556521,Dolné Zelenice,48.3765002,17.7472554,Hlohovec,48.4278838,17.798782,Trnavský kraj,Trnava,48.3767652,17.5858175,216.25,"2,719,125",588,9.4,11,20,24
507024,Dvorníky,48.354814,17.79374,Hlohovec,48.4278838,17.798782,Trnavský kraj,Trnava,48.3767652,17.5858175,80.2,"25,536,712",2048,10.5,13,28.1,27
507032,Hlohovec,48.4278838,17.798782,Hlohovec,48.4278838,17.798782,Trnavský kraj,Trnava,48.3767652,17.5858175,330.03,"64,187,312",21184,0,0,27.2,21
507075,Horné Otrokovce,48.4885164,17.88399361,Hlohovec,48.4278838,17.798782,Trnavský kraj,Trnava,48.3767652,17.5858175,94.27,"9,058,674",854,11.9,13,38.6,33
556602,Horné Trhovište,48.4699495,17.87152885,Hlohovec,48.4278838,17.798782,Trnavský kraj,Trnava,48.3767652,17.5858175,80.47,"7,543,624",607,10.2,12,36.9,33
556530,Horné Zelenice,48.3925212,17.74663697,Hlohovec,48.4278838,17.798782,Trnavský kraj,Trnava,48.3767652,17.5858175,165.57,"4,248,895",704,9.6,8,27.8,19
507130,Jalšové,48.5016957,17.83752283,Hlohovec,48.4278838,17.798782,Trnavský kraj,Trnava,48.3767652,17.5858175,52.14,"9,330,644",487,10.7,13,37.3,33
507172,Kľačany,48.3894586,17.8727907,Hlohovec,48.4278838,17.798782,Trnavský kraj,Trnava,48.3767652,17.5858175,112.02,"10,105,149",1132,7.8,10,34.7,31
507202,Koplotovce,48.48521005,17.81702615,Hlohovec,48.4278838,17.798782,Trnavský kraj,Trnava,48.3767652,17.5858175,133.81,"5,799,335",776,7.6,10,34.3,30
507253,Leopoldov,48.4441776,17.7654426,Hlohovec,48.4278838,17.798782,Trnavský kraj,Trnava,48.3767652,17.5858175,725.8,"5,652,376",4103,3.8,5,25.8,19
507288,Madunice,48.4779835,17.7808815,Hlohovec,48.4278838,17.798782,Trnavský kraj,Trnava,48.3767652,17.5858175,190.15,"11,995,482",2281,8.2,11,20.3,21
507326,Merašice,48.46485,17.94885797,Hlohovec,48.4278838,17.798782,Trnavský kraj,Trnava,48.3767652,17.5858175,89.73,"4,936,840",443,15.2,18,41.9,38
507415,Pastuchov,48.4255852,17.8769449,Hlohovec,48.4278838,17.798782,Trnavský kraj,Trnava,48.3767652,17.5858175,63.8,"15,234,830",972,9.2,13,35.9,33
518620,Ratkovce,48.478074,17.70169871,Hlohovec,48.4278838,17.798782,Trnavský kraj,Trnava,48.3767652,17.5858175,78.94,"4,452,511",352,12.2,16,16,20
507521,Sasinkovo,48.3665779,17.84876351,Hlohovec,48.4278838,17.798782,Trnavský kraj,Trnava,48.3767652,17.5858175,69.01,"12,411,508",857,10.3,15,37.2,35
507539,Siladice,48.3610805,17.72961895,Hlohovec,48.4278838,17.798782,Trnavský kraj,Trnava,48.3767652,17.5858175,84.26,"7,601,429",641,12.2,14,18,23
556611,Tekolďany,48.4923833,17.9047549,Hlohovec,48.4278838,17.798782,Trnavský kraj,Trnava,48.3767652,17.5858175,51,"2,597,800",133,14.3,17,41,37
556645,Tepličky,48.47013915,17.85019115,Hlohovec,48.4278838,17.798782,Trnavský kraj,Trnava,48.3767652,17.5858175,52.25,"5,674,924",297,8.3,10,35,30
507661,Trakovice,48.44487815,17.72310721,Hlohovec,48.4278838,17.798782,Trnavský kraj,Trnava,48.3767652,17.5858175,134.59,"11,631,554",1566,6.7,8,24.1,18
507792,Žlkovce,48.46267015,17.71325783,Hlohovec,48.4278838,17.798782,Trnavský kraj,Trnava,48.3767652,17.5858175,82.82,"7,939,281",658,10.2,14,17.2,19
520012,Adidovce,49.0155116,22.0365682,Humenné,48.9350033,21.9020268,Prešovský kraj,Prešov,48.9975724,21.2401811,10.74,"20,765,157",223,15.5,18,85.8,92
520021,Baškovce - Humenné,49.0337435,21.8383492,Humenné,48.9350033,21.9020268,Prešovský kraj,Prešov,48.9975724,21.2401811,61.32,"6,629,585",407,14.3,17,75.8,83
520055,Brekov,48.9056816,21.8380892,Humenné,48.9350033,21.9020268,Prešovský kraj,Prešov,48.9975724,21.2401811,135.63,"9,706,830",1317,6.4,8,64.9,69
520063,Brestov - Humenné,48.9646244,21.8878485,Humenné,48.9350033,21.9020268,Prešovský kraj,Prešov,48.9975724,21.2401811,60.71,"10,121,069",615,3.9,5,74.4,80
520110,Černina,49.05480375,21.82102646,Humenné,48.9350033,21.9020268,Prešovský kraj,Prešov,48.9975724,21.2401811,22.5,"7,399,734",167,17,21,78.6,86
520268,Chlmec,48.8863959,21.9393728,Humenné,48.9350033,21.9020268,Prešovský kraj,Prešov,48.9975724,21.2401811,72.1,"7,912,480",571,7.6,11,78.4,85
520152,Dedačov,49.03385855,21.98236847,Humenné,48.9350033,21.9020268,Prešovský kraj,Prešov,48.9975724,21.2401811,27.13,"5,750,032",156,15.7,17,86,91
559644,Gruzovce,48.9725467,21.8674848,Humenné,48.9350033,21.9020268,Prešovský kraj,Prešov,48.9975724,21.2401811,32.24,"4,093,709",132,5.7,7,76.1,82
520195,Hankovce - Humenné,49.0253543,21.9453172,Humenné,48.9350033,21.9020268,Prešovský kraj,Prešov,48.9975724,21.2401811,58.62,"8,546,887",501,13,14,83.3,87
559598,Hažín nad Cirochou,48.9292642,21.9617287,Humenné,48.9350033,21.9020268,Prešovský kraj,Prešov,48.9975724,21.2401811,93.63,"7,182,280",673,5.7,8,76.5,82
520225,Hrabovec nad Laborcom,49.0966802,21.9405675,Humenné,48.9350033,21.9020268,Prešovský kraj,Prešov,48.9975724,21.2401811,37.63,"13,540,255",510,22.1,24,92.4,98
520233,Hrubov,49.0925655,21.8622353,Humenné,48.9350033,21.9020268,Prešovský kraj,Prešov,48.9975724,21.2401811,33.12,"14,418,178",478,21.8,26,83.4,91
520241,Hudcovce,48.9079776,21.7891373,Humenné,48.9350033,21.9020268,Prešovský kraj,Prešov,48.9975724,21.2401811,68.21,"5,864,260",400,10.3,13,60.4,65
520004,Humenné,48.9350033,21.9020268,Humenné,48.9350033,21.9020268,Prešovský kraj,Prešov,48.9975724,21.2401811,"1,140.78","28,631,700",32663,0,0,70.8,75
520276,Jabloň,49.0654887,21.9797564,Humenné,48.9350033,21.9020268,Prešovský kraj,Prešov,48.9975724,21.2401811,33.22,"11,861,916",394,18.6,21,89,95
520292,Jankovce,49.0594167,21.7973902,Humenné,48.9350033,21.9020268,Prešovský kraj,Prešov,48.9975724,21.2401811,46.56,"5,691,298",265,20.3,25,66.4,72
559547,Jasenov - Humenné,48.906879,21.9027809,Humenné,48.9350033,21.9020268,Prešovský kraj,Prešov,48.9975724,21.2401811,89.66,"13,266,418",1190,4.1,7,74.9,81
520331,Kamenica nad Cirochou,48.9315807,21.9957848,Humenné,48.9350033,21.9020268,Prešovský kraj,Prešov,48.9975724,21.2401811,131.85,"17,572,681",2317,7.9,10,78.7,84
520349,Kamienka - Humenné,48.9057957,21.999438,Humenné,48.9350033,21.9020268,Prešovský kraj,Prešov,48.9975724,21.2401811,96.99,"5,402,876",524,10.3,13,81,87
520357,Karná,48.9844958,21.8060267,Humenné,48.9350033,21.9020268,Prešovský kraj,Prešov,48.9975724,21.2401811,44.6,"10,213,639",456,14.9,19,70.9,79
520373,Kochanovce - Humenné,48.9537933,21.9418492,Humenné,48.9350033,21.9020268,Prešovský kraj,Prešov,48.9975724,21.2401811,146.68,"5,021,109",737,4.9,7,75.2,80
528803,Košarovce,49.0433951,21.7814348,Humenné,48.9350033,21.9020268,Prešovský kraj,Prešov,48.9975724,21.2401811,78.33,"7,979,325",625,18.4,22,63.8,69
520403,Koškovce,49.0468766,21.9557418,Humenné,48.9350033,21.9020268,Prešovský kraj,Prešov,48.9975724,21.2401811,49.16,"11,706,645",576,15.7,17,86.1,91
582140,Lackovce,48.9400564,21.9568618,Humenné,48.9350033,21.9020268,Prešovský kraj,Prešov,48.9975724,21.2401811,227.61,"3,598,272",819,4.7,7,75.1,80
520446,Lieskovec - Humenné,48.95,21.8166667,Humenné,48.9350033,21.9020268,Prešovský kraj,Prešov,48.9975724,21.2401811,46.5,"9,687,929",451,10.6,13,66.6,72
520454,Ľubiša,49.0057438,21.9489461,Humenné,48.9350033,21.9020268,Prešovský kraj,Prešov,48.9975724,21.2401811,81.48,"10,020,627",817,11,12,81.3,86
520462,Lukačovce,49.0306561,21.7836833,Humenné,48.9350033,21.9020268,Prešovský kraj,Prešov,48.9975724,21.2401811,59.67,"7,474,464",446,16.8,20,65,70
559652,Maškovce,49.02358615,21.99419712,Humenné,48.9350033,21.9020268,Prešovský kraj,Prešov,48.9975724,21.2401811,7.65,"6,994,641",54,15.3,18,85.7,92
520497,Modra nad Cirochou,48.9450527,22.0425486,Humenné,48.9350033,21.9020268,Prešovský kraj,Prešov,48.9975724,21.2401811,135.95,"7,304,080",993,12.6,15,83.3,90
520501,Myslina,48.9460882,21.8553089,Humenné,48.9350033,21.9020268,Prešovský kraj,Prešov,48.9975724,21.2401811,60.53,"9,541,414",578,5.8,8,69.2,75
520527,Nechvalova Polianka,49.0697609,22.0929084,Humenné,48.9350033,21.9020268,Prešovský kraj,Prešov,48.9975724,21.2401811,4.95,"12,734,466",63,24.1,28,94.5,101
520535,Nižná Jablonka,49.1245453,22.0871044,Humenné,48.9350033,21.9020268,Prešovský kraj,Prešov,48.9975724,21.2401811,13.42,"11,887,944",160,29.6,33,100,107
528897,Nižná Sitnica,49.0676555,21.7932169,Humenné,48.9350033,21.9020268,Prešovský kraj,Prešov,48.9975724,21.2401811,33.74,"9,172,153",310,21.4,26,66.8,72
520543,Nižné Ladičkovce,49.0221973,21.9017946,Humenné,48.9350033,21.9020268,Prešovský kraj,Prešov,48.9975724,21.2401811,39.25,"8,547,890",336,14.7,16,85,90
520560,Ohradzany,48.9988555,21.8409872,Humenné,48.9350033,21.9020268,Prešovský kraj,Prešov,48.9975724,21.2401811,52.96,"11,991,084",635,10.5,13,72.1,79
528951,Pakostov,49.093197,21.8232761,Humenné,48.9350033,21.9020268,Prešovský kraj,Prešov,48.9975724,21.2401811,30.36,"14,377,266",437,24.9,29,70.3,76
520624,Papín,49.0940784,22.059105,Humenné,48.9350033,21.9020268,Prešovský kraj,Prešov,48.9975724,21.2401811,35.76,"25,877,694",926,25.1,28,95.5,102
520667,Porúbka - Humenné,48.8635492,21.9576701,Humenné,48.9350033,21.9020268,Prešovský kraj,Prešov,48.9975724,21.2401811,62.02,"4,321,532",268,10.2,13,80.9,87
529010,Prituľany,49.1288417,21.7740881,Humenné,48.9350033,21.9020268,Prešovský kraj,Prešov,48.9975724,21.2401811,6.56,"6,481,007",43,28.9,34,74.3,81
520683,Ptičie,48.9048806,21.9583193,Humenné,48.9350033,21.9020268,Prešovský kraj,Prešov,48.9975724,21.2401811,62.11,"10,457,419",650,7.7,10,78.4,85
529061,Rohožník - Humenné,49.1120384,21.7625602,Humenné,48.9350033,21.9020268,Prešovský kraj,Prešov,48.9975724,21.2401811,12.94,"3,594,332",47,27.3,32,72.7,79
520250,Rokytov pri Humennom,49.1021036,21.990488,Humenné,48.9350033,21.9020268,Prešovský kraj,Prešov,48.9975724,21.2401811,10.92,"25,678,889",281,22.5,24,92.9,98
520721,Rovné - Humenné,48.9796458,22.0041334,Humenné,48.9350033,21.9020268,Prešovský kraj,Prešov,48.9975724,21.2401811,56.28,"8,102,294",456,11,13,81.3,87
529087,Ruská Kajňa,49.1181391,21.838731,Humenné,48.9350033,21.9020268,Prešovský kraj,Prešov,48.9975724,21.2401811,20.75,"5,109,628",106,28.2,35,73.7,82
529095,Ruská Poruba,49.1400858,21.7912934,Humenné,48.9350033,21.9020268,Prešovský kraj,Prešov,48.9975724,21.2401811,18.67,"12,027,397",225,29.6,35,75.1,82
520772,Slovenská Volová,48.9821888,21.8468527,Humenné,48.9350033,21.9020268,Prešovský kraj,Prešov,48.9975724,21.2401811,65.66,"8,657,582",569,8.2,11,73.8,80
520781,Slovenské Krivé,49.07147065,22.01587127,Humenné,48.9350033,21.9020268,Prešovský kraj,Prešov,48.9975724,21.2401811,18.53,"6,394,784",119,21.5,25,91.9,98
559636,Sopkovce,49.01540835,21.87153304,Humenné,48.9350033,21.9020268,Prešovský kraj,Prešov,48.9975724,21.2401811,13.6,"7,243,171",99,13.3,16,74.9,82
520896,Topoľovka,48.9238403,21.8093623,Humenné,48.9350033,21.9020268,Prešovský kraj,Prešov,48.9975724,21.2401811,103.18,"7,787,412",804,7.7,10,63.6,69
520900,Turcovce,49.0527754,21.8472246,Humenné,48.9350033,21.9020268,Prešovský kraj,Prešov,48.9975724,21.2401811,30.67,"10,008,480",307,16.6,20,78.2,86
520926,Udavské,48.9744439,21.9637892,Humenné,48.9350033,21.9020268,Prešovský kraj,Prešov,48.9975724,21.2401811,92.49,"13,201,297",1221,7.7,9,78.1,83
518638,Valaškovce (vojenský obvod),48.9139,22.075,Humenné,48.9350033,21.9020268,Prešovský kraj,Prešov,48.9975724,21.2401811,0,0,0,16.3,37,87,111
520977,Veľopolie,48.9929915,21.9547426,Humenné,48.9350033,21.9020268,Prešovský kraj,Prešov,48.9975724,21.2401811,46.2,"7,857,318",363,9.6,12,80,86
520985,Víťazovce,49.0100514,21.8016313,Humenné,48.9350033,21.9020268,Prešovský kraj,Prešov,48.9975724,21.2401811,55.18,"5,572,222",308,13.7,16,68.2,74
521019,Vyšná Jablonka,49.1532492,22.1011241,Humenné,48.9350033,21.9020268,Prešovský kraj,Prešov,48.9975724,21.2401811,2.09,"24,831,737",52,33.2,37,103.5,111
529249,Vyšná Sitnica,49.0962114,21.787426,Humenné,48.9350033,21.9020268,Prešovský kraj,Prešov,48.9975724,21.2401811,36.13,"9,785,262",354,24.6,29,70,76
521027,Vyšné Ladičkovce,49.0361568,21.8907356,Humenné,48.9350033,21.9020268,Prešovský kraj,Prešov,48.9975724,21.2401811,11.91,"15,402,777",184,16.5,18,86.9,92
521035,Vyšný Hrušov,48.992946,22.010477,Humenné,48.9350033,21.9020268,Prešovský kraj,Prešov,48.9975724,21.2401811,44.36,"11,360,856",504,12.2,15,82.5,88
529273,Závada - Humenné,49.1725041,21.7847415,Humenné,48.9350033,21.9020268,Prešovský kraj,Prešov,48.9975724,21.2401811,7.08,"9,033,553",64,33.7,41,79.1,87
521043,Závadka - Humenné,48.92722,21.8405349,Humenné,48.9350033,21.9020268,Prešovský kraj,Prešov,48.9975724,21.2401811,94.5,"5,703,644",539,4.8,6,66,71
521086,Zbudské Dlhé,49.0752519,21.960096,Humenné,48.9350033,21.9020268,Prešovský kraj,Prešov,48.9975724,21.2401811,91.12,"8,357,184",762,18.9,20,89.3,94
521116,Zubné,49.0477998,22.0625757,Humenné,48.9350033,21.9020268,Prešovský kraj,Prešov,48.9975724,21.2401811,18.21,"19,551,338",356,19.8,23,90.2,96
582301,Bohunice - Ilava,49.0182629,18.1998069,Ilava,48.9985674,18.2307598,Trenčiansky kraj,Trenčín,48.8923583,18.0393715,113.13,"7,035,899",796,6.5,8,32.1,28
512885,Bolešov,48.9854933,18.1565106,Ilava,48.9985674,18.2307598,Trenčiansky kraj,Trenčín,48.8923583,18.0393715,103.97,"14,950,891",1555,13.4,12,24.4,23
557391,Borčice,48.9789599,18.1376932,Ilava,48.9985674,18.2307598,Trenčiansky kraj,Trenčín,48.8923583,18.0393715,165.72,"4,118,319",683,11.9,10,22.9,21
512931,Červený Kameň,49.0875197,18.1825274,Ilava,48.9985674,18.2307598,Trenčiansky kraj,Trenčín,48.8923583,18.0393715,20.84,"32,585,713",679,15.1,21,40.7,41
513016,Dubnica nad Váhom,48.9574049,18.1662967,Ilava,48.9985674,18.2307598,Trenčiansky kraj,Trenčín,48.8923583,18.0393715,476.31,"49,137,327",23405,7.5,10,15.2,20
513024,Dulov,49.0378981,18.253899,Ilava,48.9985674,18.2307598,Trenčiansky kraj,Trenčín,48.8923583,18.0393715,166.76,"5,534,995",923,10.1,13,35.7,33
513091,Horná Poruba,48.94114,18.3049258,Ilava,48.9985674,18.2307598,Trenčiansky kraj,Trenčín,48.8923583,18.0393715,78.85,"13,691,178",1080,8.9,11,38,36
513156,Ilava,48.9985674,18.2307598,Ilava,48.9985674,18.2307598,Trenčiansky kraj,Trenčín,48.8923583,18.0393715,224.92,"24,301,927",5466,0,0,29.7,26
557404,Kameničany,48.9912592,18.1705638,Ilava,48.9985674,18.2307598,Trenčiansky kraj,Trenčín,48.8923583,18.0393715,109.7,"5,082,121",558,10.3,12,25.7,25
513253,Košeca,49.0087638,18.2593391,Ilava,48.9985674,18.2307598,Trenčiansky kraj,Trenčín,48.8923583,18.0393715,145.25,"18,943,689",2752,2.8,4,31.8,28
513351,Košecké Podhradie,48.9784122,18.314004,Ilava,48.9985674,18.2307598,Trenčiansky kraj,Trenčín,48.8923583,18.0393715,28.7,"36,914,249",1060,8.6,13,37.6,37
557617,Krivoklát,49.0454601,18.1654431,Ilava,48.9985674,18.2307598,Trenčiansky kraj,Trenčín,48.8923583,18.0393715,22.68,"10,667,848",242,10.7,14,36.3,34
513296,Ladce,49.0377482,18.2874828,Ilava,48.9985674,18.2307598,Trenčiansky kraj,Trenčín,48.8923583,18.0393715,164.65,"15,687,629",2583,6.8,8,37.3,29
513385,Mikušovce - Ilava,49.0635097,18.2064692,Ilava,48.9985674,18.2307598,Trenčiansky kraj,Trenčín,48.8923583,18.0393715,119.95,"8,499,407",1020,11.8,15,37.3,35
513440,Nová Dubnica,48.9358736,18.1457351,Ilava,48.9985674,18.2307598,Trenčiansky kraj,Trenčín,48.8923583,18.0393715,976.7,"11,253,213",10991,13.8,13,12.8,18
513598,Pruské,49.0260306,18.2095869,Ilava,48.9985674,18.2307598,Trenčiansky kraj,Trenčín,48.8923583,18.0393715,179.67,"12,926,309",2323,5.6,7,31.1,27
557412,Sedmerovec,49.0134048,18.1742166,Ilava,48.9985674,18.2307598,Trenčiansky kraj,Trenčín,48.8923583,18.0393715,70.18,"6,005,641",422,9.2,11,28.4,28
557421,Slavnica,48.9982392,18.1813431,Ilava,48.9985674,18.2307598,Trenčiansky kraj,Trenčín,48.8923583,18.0393715,102.31,"7,809,776",799,9.4,11,27.2,27
513725,Tuchyňa,49.0406791,18.2184781,Ilava,48.9985674,18.2307598,Trenčiansky kraj,Trenčín,48.8923583,18.0393715,144.2,"5,544,322",800,8.7,11,34.3,31
557625,Vršatské Podhradie,49.0643527,18.1542729,Ilava,48.9985674,18.2307598,Trenčiansky kraj,Trenčín,48.8923583,18.0393715,16.34,"13,430,618",220,12.2,17,37.8,37
513865,Zliechov,48.9502297,18.4311984,Ilava,48.9985674,18.2307598,Trenčiansky kraj,Trenčín,48.8923583,18.0393715,10.89,"54,380,299",592,18.8,28,47.9,53
523399,Abrahámovce - Kežmarok,49.0438114,20.45511821,Kežmarok,49.1362088,20.4308701,Prešovský kraj,Prešov,48.9975724,21.2401811,40.81,"6,653,165",272,13.4,18,68.1,49
523411,Bušovce,49.22260755,20.47634179,Kežmarok,49.1362088,20.4308701,Prešovský kraj,Prešov,48.9975724,21.2401811,33.83,"9,030,920",306,12.2,16,91.5,77
523429,Červený Kláštor,49.3989838,20.41653331,Kežmarok,49.1362088,20.4308701,Prešovský kraj,Prešov,48.9975724,21.2401811,73.13,"3,042,503",223,35.7,49,89.5,96
523461,Havka,49.3447392,20.4053925,Kežmarok,49.1362088,20.4308701,Prešovský kraj,Prešov,48.9975724,21.2401811,6.07,"6,013,160",37,40.9,50,120.1,110
523470,Holumnica,49.2358732,20.5223911,Kežmarok,49.1362088,20.4308701,Prešovský kraj,Prešov,48.9975724,21.2401811,53.25,"16,780,366",894,16.4,20,95.7,81
523500,Hradisko,49.0580424,20.52772946,Kežmarok,49.1362088,20.4308701,Prešovský kraj,Prešov,48.9975724,21.2401811,28.67,"3,365,655",97,14.4,22,83.6,70
523526,Huncovce,49.12824315,20.37824197,Kežmarok,49.1362088,20.4308701,Prešovský kraj,Prešov,48.9975724,21.2401811,245.47,"13,272,277",3258,6.4,9,83,60
523534,Ihľany,49.1875163,20.537682,Kežmarok,49.1362088,20.4308701,Prešovský kraj,Prešov,48.9975724,21.2401811,55.01,"28,456,150",1566,22.4,29,90.9,87
523569,Jezersko,49.2990499,20.3340543,Kežmarok,49.1362088,20.4308701,Prešovský kraj,Prešov,48.9975724,21.2401811,9.86,"7,759,684",77,29.9,36,109.2,96
523577,Jurské,49.2020446,20.5263552,Kežmarok,49.1362088,20.4308701,Prešovský kraj,Prešov,48.9975724,21.2401811,179.25,"7,361,383",1320,20.5,26,99.8,87
523585,Kežmarok,49.1362088,20.4308701,Kežmarok,49.1362088,20.4308701,Prešovský kraj,Prešov,48.9975724,21.2401811,658.05,"24,780,612",16307,0,0,79.4,62
523607,Krížová Ves,49.19149285,20.49554342,Kežmarok,49.1362088,20.4308701,Prešovský kraj,Prešov,48.9975724,21.2401811,192.19,"11,928,327",2293,10.3,16,89.5,76
523615,Lechnica,49.37204045,20.40928115,Kežmarok,49.1362088,20.4308701,Prešovský kraj,Prešov,48.9975724,21.2401811,20.39,"12,434,537",254,44,52,92.5,101
523623,Lendak,49.2359464,20.3540031,Kežmarok,49.1362088,20.4308701,Prešovský kraj,Prešov,48.9975724,21.2401811,274.03,"19,658,304",5387,17.5,25,100.7,82
523682,Ľubica,49.1192604,20.4467572,Kežmarok,49.1362088,20.4308701,Prešovský kraj,Prešov,48.9975724,21.2401811,60.07,"76,529,591",4598,3,5,76.4,57
523674,Majere,49.39800395,20.37577139,Kežmarok,49.1362088,20.4308701,Prešovský kraj,Prešov,48.9975724,21.2401811,88.65,"1,331,138",118,39.4,46,93.6,101
559938,Malá Franková,49.3166527,20.3040555,Kežmarok,49.1362088,20.4308701,Prešovský kraj,Prešov,48.9975724,21.2401811,16.89,"10,808,006",183,38.4,48,117.7,108
581241,Malý Slavkov,49.1486746,20.37008428,Kežmarok,49.1362088,20.4308701,Prešovský kraj,Prešov,48.9975724,21.2401811,224.36,"4,980,881",1118,6.3,11,84.6,70
523712,Matiašovce,49.3481834,20.35950844,Kežmarok,49.1362088,20.4308701,Prešovský kraj,Prešov,48.9975724,21.2401811,46.96,"17,495,459",822,32.5,38,111.8,99
523739,Mlynčeky,49.167924,20.39919598,Kežmarok,49.1362088,20.4308701,Prešovský kraj,Prešov,48.9975724,21.2401811,89.22,"7,795,013",696,5.4,10,84.7,70
523771,Osturňa,49.3333333,20.2333333,Kežmarok,49.1362088,20.4308701,Prešovský kraj,Prešov,48.9975724,21.2401811,7.4,"41,281,717",306,40.8,50,118.1,110
523780,Podhorany - Kežmarok,49.2445226,20.47445502,Kežmarok,49.1362088,20.4308701,Prešovský kraj,Prešov,48.9975724,21.2401811,278.88,"11,019,259",3073,14.6,19,93.9,79
523798,Rakúsy,49.19107015,20.37722738,Kežmarok,49.1362088,20.4308701,Prešovský kraj,Prešov,48.9975724,21.2401811,532.59,"6,340,698",3377,7.8,14,87,74
523801,Reľov,49.28912,20.39973962,Kežmarok,49.1362088,20.4308701,Prešovský kraj,Prešov,48.9975724,21.2401811,22.81,"14,973,888",342,23,27,102.3,87
523810,Slovenská Ves,49.2255505,20.4258676,Kežmarok,49.1362088,20.4308701,Prešovský kraj,Prešov,48.9975724,21.2401811,83.88,"22,424,811",1881,11.9,16,91.1,76
523828,Spišská Belá,49.1900051,20.4553246,Kežmarok,49.1362088,20.4308701,Prešovský kraj,Prešov,48.9975724,21.2401811,198.91,"33,891,438",6742,7.2,11,86.4,71
523836,Spišská Stará Ves,49.383146,20.3598135,Kežmarok,49.1362088,20.4308701,Prešovský kraj,Prešov,48.9975724,21.2401811,127.53,"17,532,635",2236,36,42,115.2,103
523861,Spišské Hanušovce,49.3316958,20.3446297,Kežmarok,49.1362088,20.4308701,Prešovský kraj,Prešov,48.9975724,21.2401811,55.22,"14,296,201",790,29.7,35,109,95
523887,Stará Lesná,49.13581465,20.30094487,Kežmarok,49.1362088,20.4308701,Prešovský kraj,Prešov,48.9975724,21.2401811,107.76,"9,479,832",1022,12.4,18,85.8,64
523909,Stráne pod Tatrami,49.1620161,20.3708461,Kežmarok,49.1362088,20.4308701,Prešovský kraj,Prešov,48.9975724,21.2401811,631.36,"4,217,878",2663,6.2,11,84.5,70
523976,Toporec,49.2644984,20.491827,Kežmarok,49.1362088,20.4308701,Prešovský kraj,Prešov,48.9975724,21.2401811,71.35,"28,121,469",2007,17.2,21,96.5,82
523984,Tvarožná,49.0845166,20.4788988,Kežmarok,49.1362088,20.4308701,Prešovský kraj,Prešov,48.9975724,21.2401811,20.78,"35,002,972",728,9,14,78.2,61
523992,Veľká Franková,49.3380439,20.2934499,Kežmarok,49.1362088,20.4308701,Prešovský kraj,Prešov,48.9975724,21.2401811,31.02,"10,589,860",329,35.6,43,114.9,104
524000,Veľká Lomnica,49.1163442,20.3589474,Kežmarok,49.1362088,20.4308701,Prešovský kraj,Prešov,48.9975724,21.2401811,263.57,"19,126,208",5041,7.2,10,81,57
524042,Vlková,49.05719985,20.43700999,Kežmarok,49.1362088,20.4308701,Prešovský kraj,Prešov,48.9975724,21.2401811,71.94,"11,814,936",850,11,14,68.4,49
524051,Vlkovce,49.052267,20.50221799,Kežmarok,49.1362088,20.4308701,Prešovský kraj,Prešov,48.9975724,21.2401811,124.49,"3,839,570",478,16.2,25,85.4,72
524069,Vojňany,49.25835915,20.44317648,Kežmarok,49.1362088,20.4308701,Prešovský kraj,Prešov,48.9975724,21.2401811,53.14,"5,786,844",308,16.4,21,95.7,81
524077,Vrbov,49.0871406,20.4267274,Kežmarok,49.1362088,20.4308701,Prešovský kraj,Prešov,48.9975724,21.2401811,80.99,"19,305,128",1564,7.3,10,72.3,53
524085,Výborná,49.24285525,20.39030741,Kežmarok,49.1362088,20.4308701,Prešovský kraj,Prešov,48.9975724,21.2401811,123.86,"10,544,073",1306,14.7,21,94,81
524123,Žakovce,49.0817207,20.3972802,Kežmarok,49.1362088,20.4308701,Prešovský kraj,Prešov,48.9975724,21.2401811,56.8,"16,028,764",911,9.4,14,74.8,57
524115,Zálesie - Kežmarok,49.31916145,20.38922779,Kežmarok,49.1362088,20.4308701,Prešovský kraj,Prešov,48.9975724,21.2401811,17.23,"4,789,010",83,37.2,45,116.5,106
501034,Bajč,47.9235482,18.2081404,Komárno,47.7574079,18.1298249,Nitriansky kraj,Nitra,48.31295,18.0894593,33.43,"36,475,732",1220,22.1,24,47.1,59
501395,Bátorove Kosihy,47.8279363,18.4088219,Komárno,47.7574079,18.1298249,Nitriansky kraj,Nitra,48.31295,18.0894593,72.41,"45,885,515",3323,28.8,37,72.8,84
501042,Bodza,47.8335306,17.8288064,Komárno,47.7574079,18.1298249,Nitriansky kraj,Nitra,48.31295,18.0894593,60.14,"6,318,239",380,28.1,32,86.2,84
555819,Bodzianske Lúky,47.8887538,17.8967422,Komárno,47.7574079,18.1298249,Nitriansky kraj,Nitra,48.31295,18.0894593,36.58,"5,166,423",189,33.9,44,69.7,87
501069,Brestovec - Komárno,47.8640011,17.8218727,Komárno,47.7574079,18.1298249,Nitriansky kraj,Nitra,48.31295,18.0894593,63.74,"7,491,193",478,33.1,38,82.6,79
501077,Búč,47.8077245,18.4421897,Komárno,47.7574079,18.1298249,Nitriansky kraj,Nitra,48.31295,18.0894593,34.84,"31,500,942",1098,29.8,41,78.4,88
501085,Čalovec,47.8165152,17.9882908,Komárno,47.7574079,18.1298249,Nitriansky kraj,Nitra,48.31295,18.0894593,49.68,"23,208,646",1153,16.6,24,71.4,87
501158,Chotín,47.8082975,18.225706,Komárno,47.7574079,18.1298249,Nitriansky kraj,Nitra,48.31295,18.0894593,66.64,"20,424,094",1361,11.2,13,65.1,78
501093,Číčov,47.7709697,17.7671833,Komárno,47.7574079,18.1298249,Nitriansky kraj,Nitra,48.31295,18.0894593,42.29,"29,358,825",1242,32.6,40,97.8,96
501107,Dedina Mládeže,47.9498999,18.0052297,Komárno,47.7574079,18.1298249,Nitriansky kraj,Nitra,48.31295,18.0894593,35.09,"12,781,364",449,29.9,37,67,65
501123,Dulovce,47.8688678,18.272609,Komárno,47.7574079,18.1298249,Nitriansky kraj,Nitra,48.31295,18.0894593,135.74,"12,380,200",1681,18.6,20,60.2,71
580911,Holiare,47.8276462,17.8145233,Komárno,47.7574079,18.1298249,Nitriansky kraj,Nitra,48.31295,18.0894593,48.86,"9,884,661",483,28.4,33,87.5,86
501140,Hurbanovo,47.8761227,18.198313,Komárno,47.7574079,18.1298249,Nitriansky kraj,Nitra,48.31295,18.0894593,122.76,"59,939,322",7358,16.7,19,53.3,66
501166,Imeľ,47.902284,18.143292,Komárno,47.7574079,18.1298249,Nitriansky kraj,Nitra,48.31295,18.0894593,89,"21,959,500",1955,20,24,51.9,70
501174,Iža,47.750348,18.2235858,Komárno,47.7574079,18.1298249,Nitriansky kraj,Nitra,48.31295,18.0894593,61.05,"28,018,970",1711,8.2,11,72.5,85
501182,Kameničná,47.8162871,18.0426149,Komárno,47.7574079,18.1298249,Nitriansky kraj,Nitra,48.31295,18.0894593,55.07,"34,512,194",1901,11.7,17,68.7,82
501191,Klížska Nemá,47.7513765,17.8190874,Komárno,47.7574079,18.1298249,Nitriansky kraj,Nitra,48.31295,18.0894593,37.86,"11,952,639",453,31.1,40,99.9,104
501204,Kolárovo,47.9182347,17.9966591,Komárno,47.7574079,18.1298249,Nitriansky kraj,Nitra,48.31295,18.0894593,98.97,"106,822,783",10572,24.6,31,57.9,70
501026,Komárno,47.7574079,18.1298249,Komárno,47.7574079,18.1298249,Nitriansky kraj,Nitra,48.31295,18.0894593,326.12,"103,167,662",33645,0,0,69.3,83
501212,Kravany nad Dunajom,47.762012,18.4828188,Komárno,47.7574079,18.1298249,Nitriansky kraj,Nitra,48.31295,18.0894593,44.52,"15,881,600",707,30.3,42,84.8,97
501221,Lipové,47.8401855,17.8555094,Komárno,47.7574079,18.1298249,Nitriansky kraj,Nitra,48.31295,18.0894593,13.61,"10,578,409",144,28.4,35,94.8,96
501239,Marcelová,47.7912423,18.2839913,Komárno,47.7574079,18.1298249,Nitriansky kraj,Nitra,48.31295,18.0894593,104.06,"35,749,571",3720,16.9,21,70.8,87
501247,Martovce,47.857576,18.1238828,Komárno,47.7574079,18.1298249,Nitriansky kraj,Nitra,48.31295,18.0894593,34.19,"19,959,299",683,17.6,20,60.1,75
501255,Moča,47.7600179,18.4050954,Komárno,47.7574079,18.1298249,Nitriansky kraj,Nitra,48.31295,18.0894593,62.56,"17,870,840",1118,23.1,33,85.1,96
501263,Modrany,47.8193795,18.3553602,Komárno,47.7574079,18.1298249,Nitriansky kraj,Nitra,48.31295,18.0894593,49.18,"27,065,673",1331,24.3,30,71.7,88
501271,Mudroňovo,47.8329356,18.3186419,Komárno,47.7574079,18.1298249,Nitriansky kraj,Nitra,48.31295,18.0894593,31.82,"4,006,545",128,20.3,24,67.7,82
501280,Nesvady,47.9285197,18.1285528,Komárno,47.7574079,18.1298249,Nitriansky kraj,Nitra,48.31295,18.0894593,86.96,"57,866,575",5032,23.6,30,48.3,64
501301,Okoličná na Ostrove,47.8056043,17.9163098,Komárno,47.7574079,18.1298249,Nitriansky kraj,Nitra,48.31295,18.0894593,49.25,"29,889,940",1472,22.5,28,96.5,97
501310,Patince,47.7398142,18.2920985,Komárno,47.7574079,18.1298249,Nitriansky kraj,Nitra,48.31295,18.0894593,39.06,"11,315,439",442,13.7,18,78,92
501328,Pribeta,47.901814,18.309068,Komárno,47.7574079,18.1298249,Nitriansky kraj,Nitra,48.31295,18.0894593,64.49,"42,795,414",2760,23.3,25,55.4,66
501336,Radvaň nad Dunajom,47.7477449,18.3727468,Komárno,47.7574079,18.1298249,Nitriansky kraj,Nitra,48.31295,18.0894593,44.73,"15,760,888",705,20.1,28,88.1,101
501344,Sokolce,47.8526679,17.8292407,Komárno,47.7574079,18.1298249,Nitriansky kraj,Nitra,48.31295,18.0894593,61.37,"19,421,640",1192,30.9,36,83.8,81
501352,Šrobárová,47.8042358,18.3227554,Komárno,47.7574079,18.1298249,Nitriansky kraj,Nitra,48.31295,18.0894593,61.52,"8,388,034",516,20.1,26,73.1,90
501115,Svätý Peter,47.8464683,18.2628926,Komárno,47.7574079,18.1298249,Nitriansky kraj,Nitra,48.31295,18.0894593,80.82,"34,321,185",2774,15.5,16,63.4,75
501361,Tôň,47.8047007,17.8380937,Komárno,47.7574079,18.1298249,Nitriansky kraj,Nitra,48.31295,18.0894593,75.64,"9,498,558",719,24.7,28,89.6,88
501379,Trávnik,47.7738171,17.7885433,Komárno,47.7574079,18.1298249,Nitriansky kraj,Nitra,48.31295,18.0894593,37.81,"18,617,762",704,30.7,37,95.7,97
501387,Veľké Kosihy,47.7666667,17.8833333,Komárno,47.7574079,18.1298249,Nitriansky kraj,Nitra,48.31295,18.0894593,38.94,"24,271,201",945,23.4,29,97.4,97
555827,Virt,47.7537176,18.3215832,Komárno,47.7574079,18.1298249,Nitriansky kraj,Nitra,48.31295,18.0894593,65.93,"4,678,863",309,17.9,23,75.7,94
501409,Vrbová nad Váhom,47.8495079,18.0497583,Komárno,47.7574079,18.1298249,Nitriansky kraj,Nitra,48.31295,18.0894593,24.36,"21,695,281",529,20,31,65.9,91
501417,Zemianska Olča,47.8058453,17.8726467,Komárno,47.7574079,18.1298249,Nitriansky kraj,Nitra,48.31295,18.0894593,82.46,"27,942,160",2304,22.9,27,92.5,93
501425,Zlatná na Ostrove,47.7675573,17.9764594,Komárno,47.7574079,18.1298249,Nitriansky kraj,Nitra,48.31295,18.0894593,67.06,"35,309,627",2368,13.4,18,77,95
521141,Bačkovík,48.7832753,21.4321758,Košice - okolie,48.698393,20.97390167,Košický kraj,Košice,48.7172272,21.2496774,140.68,"4,179,772",588,55,57,25,26
521159,Baška,48.7065352,21.1811549,Košice - okolie,48.698393,20.97390167,Košický kraj,Košice,48.7172272,21.2496774,154.68,"4,502,714",697,25,28,7.2,12
521167,Belža,48.5805068,21.2731581,Košice - okolie,48.698393,20.97390167,Košický kraj,Košice,48.7172272,21.2496774,76.53,"5,487,975",420,37.7,39,16.6,19
521175,Beniakovce,48.7698236,21.3171614,Košice - okolie,48.698393,20.97390167,Košický kraj,Košice,48.7172272,21.2496774,201.82,"3,805,432",768,44.8,44,14.9,14
521183,Bidovce,48.736309,21.4386284,Košice - okolie,48.698393,20.97390167,Košický kraj,Košice,48.7172272,21.2496774,165.62,"9,811,795",1625,49.3,50,19.4,20
521191,Blažice,48.6674881,21.4122829,Košice - okolie,48.698393,20.97390167,Košický kraj,Košice,48.7172272,21.2496774,188.6,"3,401,369",642,42.9,48,19,24
559831,Bočiar,48.5920569,21.2353988,Košice - okolie,48.698393,20.97390167,Košický kraj,Košice,48.7172272,21.2496774,541.2,"472,101",256,34.5,38,16.9,19
521205,Bohdanovce,48.6569117,21.4000491,Košice - okolie,48.698393,20.97390167,Košický kraj,Košice,48.7172272,21.2496774,191.73,"5,937,908",1139,41.3,46,17.4,22
